{
  "villages": [
    {
      "full_address": "房山区南窖乡水峪村",
      "city": "",
      "district": "房山区",
      "county": "",
      "town": "南窖乡",
      "village": "水峪村",
      "province": "北京市",
      "batch": "第一批列入传统村落名录的村落名单",
      "batch_num": "1",
      "longitude": 116.143165,
      "latitude": 39.748761
    },
    {
      "full_address": "门头沟区龙泉镇琉璃渠村",
      "city": "",
      "district": "门头沟区",
      "county": "",
      "town": "龙泉镇",
      "village": "琉璃渠村",
      "province": "北京市",
      "batch": "第一批列入传统村落名录的村落名单",
      "batch_num": "1",
      "longitude": 116.099794,
      "latitude": 39.939701
    },
    {
      "full_address": "门头沟区龙泉镇三家店村",
      "city": "",
      "district": "门头沟区",
      "county": "",
      "town": "龙泉镇",
      "village": "三家店村",
      "province": "北京市",
      "batch": "第一批列入传统村落名录的村落名单",
      "batch_num": "1",
      "longitude": 116.099769,
      "latitude": 39.942977
    },
    {
      "full_address": "门头沟区斋堂镇爨底下村",
      "city": "",
      "district": "门头沟区",
      "county": "",
      "town": "斋堂镇",
      "village": "爨底下村",
      "province": "北京市",
      "batch": "第一批列入传统村落名录的村落名单",
      "batch_num": "1",
      "longitude": 116.099857,
      "latitude": 39.939808
    },
    {
      "full_address": "门头沟区斋堂镇黄岭西村",
      "city": "",
      "district": "门头沟区",
      "county": "",
      "town": "斋堂镇",
      "village": "黄岭西村",
      "province": "北京市",
      "batch": "第一批列入传统村落名录的村落名单",
      "batch_num": "1",
      "longitude": 116.101358,
      "latitude": 39.938917
    },
    {
      "full_address": "门头沟区斋堂镇灵水村",
      "city": "",
      "district": "门头沟区",
      "county": "",
      "town": "斋堂镇",
      "village": "灵水村",
      "province": "北京市",
      "batch": "第一批列入传统村落名录的村落名单",
      "batch_num": "1",
      "longitude": 116.101763,
      "latitude": 39.9418
    },
    {
      "full_address": "门头沟区雁翅镇苇子水村",
      "city": "",
      "district": "门头沟区",
      "county": "",
      "town": "雁翅镇",
      "village": "苇子水村",
      "province": "北京市",
      "batch": "第一批列入传统村落名录的村落名单",
      "batch_num": "1",
      "longitude": 116.099942,
      "latitude": 39.938394
    },
    {
      "full_address": "顺义区龙湾屯镇焦庄户村",
      "city": "",
      "district": "顺义区",
      "county": "",
      "town": "龙湾屯镇",
      "village": "焦庄户村",
      "province": "北京市",
      "batch": "第一批列入传统村落名录的村落名单",
      "batch_num": "1",
      "longitude": 116.660573,
      "latitude": 40.148882
    },
    {
      "full_address": "延庆县八达岭镇岔道村",
      "city": "",
      "district": "延庆县",
      "county": "",
      "town": "八达岭镇",
      "village": "岔道村",
      "province": "北京市",
      "batch": "第一批列入传统村落名录的村落名单",
      "batch_num": "1",
      "longitude": 115.977045,
      "latitude": 40.458391
    },
    {
      "full_address": "蓟县渔阳镇西井峪村",
      "city": "",
      "district": "蓟县",
      "county": "",
      "town": "渔阳镇",
      "village": "西井峪村",
      "province": "天津市",
      "batch": "第一批列入传统村落名录的村落名单",
      "batch_num": "1",
      "longitude": 117.20132,
      "latitude": 39.087191
    },
    {
      "full_address": "石家庄市井陉县南障城镇大梁江村",
      "city": "石家庄市",
      "district": "井陉县",
      "county": "",
      "town": "南障城镇",
      "village": "大梁江村",
      "province": "河北省",
      "batch": "第一批列入传统村落名录的村落名单",
      "batch_num": "1",
      "longitude": 114.147176,
      "latitude": 38.031025
    },
    {
      "full_address": "石家庄市井陉县南障城镇吕家村",
      "city": "石家庄市",
      "district": "井陉县",
      "county": "",
      "town": "南障城镇",
      "village": "吕家村",
      "province": "河北省",
      "batch": "第一批列入传统村落名录的村落名单",
      "batch_num": "1",
      "longitude": 114.146819,
      "latitude": 38.033347
    },
    {
      "full_address": "石家庄市井陉县于家乡于家村",
      "city": "石家庄市",
      "district": "井陉县",
      "county": "",
      "town": "于家乡",
      "village": "于家村",
      "province": "河北省",
      "batch": "第一批列入传统村落名录的村落名单",
      "batch_num": "1",
      "longitude": 114.144065,
      "latitude": 38.031687
    },
    {
      "full_address": "石家庄市井陉县南峪镇地都村",
      "city": "石家庄市",
      "district": "井陉县",
      "county": "",
      "town": "南峪镇",
      "village": "地都村",
      "province": "河北省",
      "batch": "第一批列入传统村落名录的村落名单",
      "batch_num": "1",
      "longitude": 114.143755,
      "latitude": 38.030416
    },
    {
      "full_address": "石家庄市井陉县天长镇梁家村",
      "city": "石家庄市",
      "district": "井陉县",
      "county": "",
      "town": "天长镇",
      "village": "梁家村",
      "province": "河北省",
      "batch": "第一批列入传统村落名录的村落名单",
      "batch_num": "1",
      "longitude": 114.146262,
      "latitude": 38.034446
    },
    {
      "full_address": "石家庄市井陉县天长镇宋古城村",
      "city": "石家庄市",
      "district": "井陉县",
      "county": "",
      "town": "天长镇",
      "village": "宋古城村",
      "province": "河北省",
      "batch": "第一批列入传统村落名录的村落名单",
      "batch_num": "1",
      "longitude": 114.145227,
      "latitude": 38.034371
    },
    {
      "full_address": "石家庄市井陉县天长镇小龙窝村",
      "city": "石家庄市",
      "district": "井陉县",
      "county": "",
      "town": "天长镇",
      "village": "小龙窝村",
      "province": "河北省",
      "batch": "第一批列入传统村落名录的村落名单",
      "batch_num": "1",
      "longitude": 114.145094,
      "latitude": 38.030557
    },
    {
      "full_address": "石家庄市鹿泉市白鹿泉乡水峪村",
      "city": "石家庄市",
      "district": "鹿泉市",
      "county": "",
      "town": "白鹿泉乡",
      "village": "水峪村",
      "province": "河北省",
      "batch": "第一批列入传统村落名录的村落名单",
      "batch_num": "1",
      "longitude": 114.311782,
      "latitude": 38.088016
    },
    {
      "full_address": "邯郸市磁县贾壁乡北贾壁村",
      "city": "邯郸市",
      "district": "磁县",
      "county": "",
      "town": "贾壁乡",
      "village": "北贾壁村",
      "province": "河北省",
      "batch": "第一批列入传统村落名录的村落名单",
      "batch_num": "1",
      "longitude": 114.372613,
      "latitude": 36.372737
    },
    {
      "full_address": "邯郸市磁县陶泉乡北岔口村",
      "city": "邯郸市",
      "district": "磁县",
      "county": "",
      "town": "陶泉乡",
      "village": "北岔口村",
      "province": "河北省",
      "batch": "第一批列入传统村落名录的村落名单",
      "batch_num": "1",
      "longitude": 114.375739,
      "latitude": 36.376424
    },
    {
      "full_address": "邯郸市磁县陶泉乡花驼村",
      "city": "邯郸市",
      "district": "磁县",
      "county": "",
      "town": "陶泉乡",
      "village": "花驼村",
      "province": "河北省",
      "batch": "第一批列入传统村落名录的村落名单",
      "batch_num": "1",
      "longitude": 114.373956,
      "latitude": 36.373699
    },
    {
      "full_address": "邯郸市磁县陶泉乡南王庄村",
      "city": "邯郸市",
      "district": "磁县",
      "county": "",
      "town": "陶泉乡",
      "village": "南王庄村",
      "province": "河北省",
      "batch": "第一批列入传统村落名录的村落名单",
      "batch_num": "1",
      "longitude": 114.376465,
      "latitude": 36.376401
    },
    {
      "full_address": "邯郸市涉县固新镇固新村",
      "city": "邯郸市",
      "district": "涉县",
      "county": "",
      "town": "固新镇",
      "village": "固新村",
      "province": "河北省",
      "batch": "第一批列入传统村落名录的村落名单",
      "batch_num": "1",
      "longitude": 113.693619,
      "latitude": 36.583625
    },
    {
      "full_address": "邯郸市涉县偏城镇偏城村",
      "city": "邯郸市",
      "district": "涉县",
      "county": "",
      "town": "偏城镇",
      "village": "偏城村",
      "province": "河北省",
      "batch": "第一批列入传统村落名录的村落名单",
      "batch_num": "1",
      "longitude": 113.690613,
      "latitude": 36.587344
    },
    {
      "full_address": "邯郸市涉县关防乡宋家村",
      "city": "邯郸市",
      "district": "涉县",
      "county": "",
      "town": "关防乡",
      "village": "宋家村",
      "province": "河北省",
      "batch": "第一批列入传统村落名录的村落名单",
      "batch_num": "1",
      "longitude": 113.69212,
      "latitude": 36.586847
    },
    {
      "full_address": "邯郸市涉县河南店镇赤岸村",
      "city": "邯郸市",
      "district": "涉县",
      "county": "",
      "town": "河南店镇",
      "village": "赤岸村",
      "province": "河北省",
      "batch": "第一批列入传统村落名录的村落名单",
      "batch_num": "1",
      "longitude": 113.689982,
      "latitude": 36.586691
    },
    {
      "full_address": "邯郸市涉县井店镇王金庄村",
      "city": "邯郸市",
      "district": "涉县",
      "county": "",
      "town": "井店镇",
      "village": "王金庄村",
      "province": "河北省",
      "batch": "第一批列入传统村落名录的村落名单",
      "batch_num": "1",
      "longitude": 113.690637,
      "latitude": 36.58665
    },
    {
      "full_address": "邯郸市武安市伯延镇伯延村",
      "city": "邯郸市",
      "district": "武安市",
      "county": "",
      "town": "伯延镇",
      "village": "伯延村",
      "province": "河北省",
      "batch": "第一批列入传统村落名录的村落名单",
      "batch_num": "1",
      "longitude": 114.205874,
      "latitude": 36.696652
    },
    {
      "full_address": "邯郸市武安市冶陶镇安子岭村",
      "city": "邯郸市",
      "district": "武安市",
      "county": "",
      "town": "冶陶镇",
      "village": "安子岭村",
      "province": "河北省",
      "batch": "第一批列入传统村落名录的村落名单",
      "batch_num": "1",
      "longitude": 114.20167,
      "latitude": 36.696944
    },
    {
      "full_address": "邯郸市武安市冶陶镇固义村",
      "city": "邯郸市",
      "district": "武安市",
      "county": "",
      "town": "冶陶镇",
      "village": "固义村",
      "province": "河北省",
      "batch": "第一批列入传统村落名录的村落名单",
      "batch_num": "1",
      "longitude": 114.205603,
      "latitude": 36.697332
    },
    {
      "full_address": "邯郸市武安市冶陶镇冶陶村",
      "city": "邯郸市",
      "district": "武安市",
      "county": "",
      "town": "冶陶镇",
      "village": "冶陶村",
      "province": "河北省",
      "batch": "第一批列入传统村落名录的村落名单",
      "batch_num": "1",
      "longitude": 114.202068,
      "latitude": 36.698999
    },
    {
      "full_address": "邯郸市武安市邑城镇白府村",
      "city": "邯郸市",
      "district": "武安市",
      "county": "",
      "town": "邑城镇",
      "village": "白府村",
      "province": "河北省",
      "batch": "第一批列入传统村落名录的村落名单",
      "batch_num": "1",
      "longitude": 114.203751,
      "latitude": 36.699734
    },
    {
      "full_address": "邢台市内丘县南赛乡神头村",
      "city": "邢台市",
      "district": "内丘县",
      "county": "",
      "town": "南赛乡",
      "village": "神头村",
      "province": "河北省",
      "batch": "第一批列入传统村落名录的村落名单",
      "batch_num": "1",
      "longitude": 114.513185,
      "latitude": 37.287779
    },
    {
      "full_address": "邢台市邢台县路罗镇英谈村",
      "city": "邢台市",
      "district": "邢台县",
      "county": "",
      "town": "路罗镇",
      "village": "英谈村",
      "province": "河北省",
      "batch": "第一批列入传统村落名录的村落名单",
      "batch_num": "1",
      "longitude": 114.498205,
      "latitude": 37.059778
    },
    {
      "full_address": "保定市清苑县冉庄镇冉庄村",
      "city": "保定市",
      "district": "清苑县",
      "county": "",
      "town": "冉庄镇",
      "village": "冉庄村",
      "province": "河北省",
      "batch": "第一批列入传统村落名录的村落名单",
      "batch_num": "1",
      "longitude": 115.487478,
      "latitude": 38.767534
    },
    {
      "full_address": "张家口市怀来县鸡鸣驿乡鸡鸣驿村",
      "city": "张家口市",
      "district": "怀来县",
      "county": "",
      "town": "鸡鸣驿乡",
      "village": "鸡鸣驿村",
      "province": "河北省",
      "batch": "第一批列入传统村落名录的村落名单",
      "batch_num": "1",
      "longitude": 115.517163,
      "latitude": 40.414836
    },
    {
      "full_address": "张家口市蔚县南留庄镇南留庄村",
      "city": "张家口市",
      "district": "蔚县",
      "county": "",
      "town": "南留庄镇",
      "village": "南留庄村",
      "province": "河北省",
      "batch": "第一批列入传统村落名录的村落名单",
      "batch_num": "1",
      "longitude": 114.589684,
      "latitude": 39.838318
    },
    {
      "full_address": "张家口市蔚县涌泉庄乡北方城村",
      "city": "张家口市",
      "district": "蔚县",
      "county": "",
      "town": "涌泉庄乡",
      "village": "北方城村",
      "province": "河北省",
      "batch": "第一批列入传统村落名录的村落名单",
      "batch_num": "1",
      "longitude": 114.590999,
      "latitude": 39.8381
    },
    {
      "full_address": "张家口市蔚县暖泉镇北官堡村",
      "city": "张家口市",
      "district": "蔚县",
      "county": "",
      "town": "暖泉镇",
      "village": "北官堡村",
      "province": "河北省",
      "batch": "第一批列入传统村落名录的村落名单",
      "batch_num": "1",
      "longitude": 114.590321,
      "latitude": 39.840881
    },
    {
      "full_address": "张家口市蔚县暖泉镇西古堡村",
      "city": "张家口市",
      "district": "蔚县",
      "county": "",
      "town": "暖泉镇",
      "village": "西古堡村",
      "province": "河北省",
      "batch": "第一批列入传统村落名录的村落名单",
      "batch_num": "1",
      "longitude": 114.589446,
      "latitude": 39.841919
    },
    {
      "full_address": "张家口市蔚县宋家庄镇上苏庄村",
      "city": "张家口市",
      "district": "蔚县",
      "county": "",
      "town": "宋家庄镇",
      "village": "上苏庄村",
      "province": "河北省",
      "batch": "第一批列入传统村落名录的村落名单",
      "batch_num": "1",
      "longitude": 114.587565,
      "latitude": 39.839183
    },
    {
      "full_address": "张家口市阳原县浮图讲乡开阳村",
      "city": "张家口市",
      "district": "阳原县",
      "county": "",
      "town": "浮图讲乡",
      "village": "开阳村",
      "province": "河北省",
      "batch": "第一批列入传统村落名录的村落名单",
      "batch_num": "1",
      "longitude": 114.151786,
      "latitude": 40.102537
    },
    {
      "full_address": "太原市晋源区晋源街道店头村",
      "city": "太原市",
      "district": "晋源区",
      "county": "",
      "town": "晋源街道",
      "village": "店头村",
      "province": "山西省",
      "batch": "第一批列入传统村落名录的村落名单",
      "batch_num": "1",
      "longitude": 112.478458,
      "latitude": 37.716248
    },
    {
      "full_address": "大同市天镇县新平堡镇新平堡村",
      "city": "大同市",
      "district": "天镇县",
      "county": "",
      "town": "新平堡镇",
      "village": "新平堡村",
      "province": "山西省",
      "batch": "第一批列入传统村落名录的村落名单",
      "batch_num": "1",
      "longitude": 114.091899,
      "latitude": 40.421274
    },
    {
      "full_address": "大同市灵丘县红石塄乡觉山村",
      "city": "大同市",
      "district": "灵丘县",
      "county": "",
      "town": "红石塄乡",
      "village": "觉山村",
      "province": "山西省",
      "batch": "第一批列入传统村落名录的村落名单",
      "batch_num": "1",
      "longitude": 114.234986,
      "latitude": 39.441106
    },
    {
      "full_address": "阳泉市郊区义井镇小河村",
      "city": "阳泉市",
      "district": "郊区",
      "county": "",
      "town": "义井镇",
      "village": "小河村",
      "province": "山西省",
      "batch": "第一批列入传统村落名录的村落名单",
      "batch_num": "1",
      "longitude": 113.595676,
      "latitude": 37.942419
    },
    {
      "full_address": "阳泉市郊区义井镇大阳泉村",
      "city": "阳泉市",
      "district": "郊区",
      "county": "",
      "town": "义井镇",
      "village": "大阳泉村",
      "province": "山西省",
      "batch": "第一批列入传统村落名录的村落名单",
      "batch_num": "1",
      "longitude": 113.592638,
      "latitude": 37.943008
    },
    {
      "full_address": "长治市长治县八义镇八义村",
      "city": "长治市",
      "district": "长治县",
      "county": "",
      "town": "八义镇",
      "village": "八义村",
      "province": "山西省",
      "batch": "第一批列入传统村落名录的村落名单",
      "batch_num": "1",
      "longitude": 113.115437,
      "latitude": 36.194265
    },
    {
      "full_address": "长治市长治县贾掌镇西岭村",
      "city": "长治市",
      "district": "长治县",
      "county": "",
      "town": "贾掌镇",
      "village": "西岭村",
      "province": "山西省",
      "batch": "第一批列入传统村落名录的村落名单",
      "batch_num": "1",
      "longitude": 113.115784,
      "latitude": 36.195075
    },
    {
      "full_address": "长治市平顺县石城镇东庄村",
      "city": "长治市",
      "district": "平顺县",
      "county": "",
      "town": "石城镇",
      "village": "东庄村",
      "province": "山西省",
      "batch": "第一批列入传统村落名录的村落名单",
      "batch_num": "1",
      "longitude": 113.437239,
      "latitude": 36.199043
    },
    {
      "full_address": "长治市平顺县石城镇岳家寨村",
      "city": "长治市",
      "district": "平顺县",
      "county": "",
      "town": "石城镇",
      "village": "岳家寨村",
      "province": "山西省",
      "batch": "第一批列入传统村落名录的村落名单",
      "batch_num": "1",
      "longitude": 113.434963,
      "latitude": 36.200912
    },
    {
      "full_address": "晋城市高平市河西镇苏庄村",
      "city": "晋城市",
      "district": "高平市",
      "county": "",
      "town": "河西镇",
      "village": "苏庄村",
      "province": "山西省",
      "batch": "第一批列入传统村落名录的村落名单",
      "batch_num": "1",
      "longitude": 112.92323,
      "latitude": 35.800142
    },
    {
      "full_address": "晋城市高平市原村乡良户村",
      "city": "晋城市",
      "district": "高平市",
      "county": "",
      "town": "原村乡",
      "village": "良户村",
      "province": "山西省",
      "batch": "第一批列入传统村落名录的村落名单",
      "batch_num": "1",
      "longitude": 112.925318,
      "latitude": 35.798718
    },
    {
      "full_address": "晋城市高平市马村镇大周村",
      "city": "晋城市",
      "district": "高平市",
      "county": "",
      "town": "马村镇",
      "village": "大周村",
      "province": "山西省",
      "batch": "第一批列入传统村落名录的村落名单",
      "batch_num": "1",
      "longitude": 112.923372,
      "latitude": 35.80006
    },
    {
      "full_address": "晋城市高平市米山镇米西村",
      "city": "晋城市",
      "district": "高平市",
      "county": "",
      "town": "米山镇",
      "village": "米西村",
      "province": "山西省",
      "batch": "第一批列入传统村落名录的村落名单",
      "batch_num": "1",
      "longitude": 112.921562,
      "latitude": 35.797346
    },
    {
      "full_address": "晋城市陵川县西河底镇积善村",
      "city": "晋城市",
      "district": "陵川县",
      "county": "",
      "town": "西河底镇",
      "village": "积善村",
      "province": "山西省",
      "batch": "第一批列入传统村落名录的村落名单",
      "batch_num": "1",
      "longitude": 113.28177,
      "latitude": 35.773921
    },
    {
      "full_address": "晋城市泽州县晋庙铺镇拦车村",
      "city": "晋城市",
      "district": "泽州县",
      "county": "",
      "town": "晋庙铺镇",
      "village": "拦车村",
      "province": "山西省",
      "batch": "第一批列入传统村落名录的村落名单",
      "batch_num": "1",
      "longitude": 112.951771,
      "latitude": 35.541518
    },
    {
      "full_address": "晋城市泽州县北义城镇西黄石村",
      "city": "晋城市",
      "district": "泽州县",
      "county": "",
      "town": "北义城镇",
      "village": "西黄石村",
      "province": "山西省",
      "batch": "第一批列入传统村落名录的村落名单",
      "batch_num": "1",
      "longitude": 112.956039,
      "latitude": 35.54492
    },
    {
      "full_address": "晋城市沁水县嘉峰镇窦庄村",
      "city": "晋城市",
      "district": "沁水县",
      "county": "",
      "town": "嘉峰镇",
      "village": "窦庄村",
      "province": "山西省",
      "batch": "第一批列入传统村落名录的村落名单",
      "batch_num": "1",
      "longitude": 112.18743,
      "latitude": 35.687684
    },
    {
      "full_address": "晋城市沁水县土沃乡西文兴村",
      "city": "晋城市",
      "district": "沁水县",
      "county": "",
      "town": "土沃乡",
      "village": "西文兴村",
      "province": "山西省",
      "batch": "第一批列入传统村落名录的村落名单",
      "batch_num": "1",
      "longitude": 112.185902,
      "latitude": 35.691822
    },
    {
      "full_address": "晋城市沁水县郑村镇湘峪村",
      "city": "晋城市",
      "district": "沁水县",
      "county": "",
      "town": "郑村镇",
      "village": "湘峪村",
      "province": "山西省",
      "batch": "第一批列入传统村落名录的村落名单",
      "batch_num": "1",
      "longitude": 112.185497,
      "latitude": 35.688992
    },
    {
      "full_address": "晋城市阳城县北留镇郭峪村",
      "city": "晋城市",
      "district": "阳城县",
      "county": "",
      "town": "北留镇",
      "village": "郭峪村",
      "province": "山西省",
      "batch": "第一批列入传统村落名录的村落名单",
      "batch_num": "1",
      "longitude": 112.416769,
      "latitude": 35.486713
    },
    {
      "full_address": "晋城市阳城县北留镇皇城村",
      "city": "晋城市",
      "district": "阳城县",
      "county": "",
      "town": "北留镇",
      "village": "皇城村",
      "province": "山西省",
      "batch": "第一批列入传统村落名录的村落名单",
      "batch_num": "1",
      "longitude": 112.412643,
      "latitude": 35.487657
    },
    {
      "full_address": "晋城市阳城县润城镇上庄村",
      "city": "晋城市",
      "district": "阳城县",
      "county": "",
      "town": "润城镇",
      "village": "上庄村",
      "province": "山西省",
      "batch": "第一批列入传统村落名录的村落名单",
      "batch_num": "1",
      "longitude": 112.41599,
      "latitude": 35.488441
    },
    {
      "full_address": "晋中市榆次区东赵乡后沟村",
      "city": "晋中市",
      "district": "榆次区",
      "county": "",
      "town": "东赵乡",
      "village": "后沟村",
      "province": "山西省",
      "batch": "第一批列入传统村落名录的村落名单",
      "batch_num": "1",
      "longitude": 112.710003,
      "latitude": 37.699774
    },
    {
      "full_address": "晋中市介休市龙凤镇张壁村",
      "city": "晋中市",
      "district": "介休市",
      "county": "",
      "town": "龙凤镇",
      "village": "张壁村",
      "province": "山西省",
      "batch": "第一批列入传统村落名录的村落名单",
      "batch_num": "1",
      "longitude": 111.918693,
      "latitude": 37.029721
    },
    {
      "full_address": "晋中市平遥县岳壁乡梁村",
      "city": "晋中市",
      "district": "平遥县",
      "county": "",
      "town": "岳壁乡",
      "village": "梁村",
      "province": "山西省",
      "batch": "第一批列入传统村落名录的村落名单",
      "batch_num": "1",
      "longitude": 112.174331,
      "latitude": 37.18985
    },
    {
      "full_address": "晋中市太谷县北洸乡北洸村",
      "city": "晋中市",
      "district": "太谷县",
      "county": "",
      "town": "北洸乡",
      "village": "北洸村",
      "province": "山西省",
      "batch": "第一批列入传统村落名录的村落名单",
      "batch_num": "1",
      "longitude": 112.552232,
      "latitude": 37.423457
    },
    {
      "full_address": "运城市万荣县高村乡阎景村",
      "city": "运城市",
      "district": "万荣县",
      "county": "",
      "town": "高村乡",
      "village": "阎景村",
      "province": "山西省",
      "batch": "第一批列入传统村落名录的村落名单",
      "batch_num": "1",
      "longitude": 110.83725,
      "latitude": 35.416113
    },
    {
      "full_address": "运城市新绛县泽掌镇光村",
      "city": "运城市",
      "district": "新绛县",
      "county": "",
      "town": "泽掌镇",
      "village": "光村",
      "province": "山西省",
      "batch": "第一批列入传统村落名录的村落名单",
      "batch_num": "1",
      "longitude": 111.225498,
      "latitude": 35.613829
    },
    {
      "full_address": "运城市永济市蒲州镇西厢村",
      "city": "运城市",
      "district": "永济市",
      "county": "",
      "town": "蒲州镇",
      "village": "西厢村",
      "province": "山西省",
      "batch": "第一批列入传统村落名录的村落名单",
      "batch_num": "1",
      "longitude": 110.447989,
      "latitude": 34.864248
    },
    {
      "full_address": "忻州市宁武县涔山乡王化沟村",
      "city": "忻州",
      "district": "市宁武县",
      "county": "",
      "town": "涔山乡",
      "village": "王化沟村",
      "province": "山西省",
      "batch": "第一批列入传统村落名录的村落名单",
      "batch_num": "1",
      "longitude": 112.305277,
      "latitude": 39.002029
    },
    {
      "full_address": "忻州市繁峙县神堂堡乡茨沟营村",
      "city": "忻州",
      "district": "市繁峙县",
      "county": "",
      "town": "神堂堡乡",
      "village": "茨沟营村",
      "province": "山西省",
      "batch": "第一批列入传统村落名录的村落名单",
      "batch_num": "1",
      "longitude": 113.266264,
      "latitude": 39.18683
    },
    {
      "full_address": "忻州市繁峙县杏园乡公主村",
      "city": "忻州",
      "district": "市繁峙县",
      "county": "",
      "town": "杏园乡",
      "village": "公主村",
      "province": "山西省",
      "batch": "第一批列入传统村落名录的村落名单",
      "batch_num": "1",
      "longitude": 113.266716,
      "latitude": 39.187205
    },
    {
      "full_address": "忻州市繁峙县横涧乡平型关村",
      "city": "忻州",
      "district": "市繁峙县",
      "county": "",
      "town": "横涧乡",
      "village": "平型关村",
      "province": "山西省",
      "batch": "第一批列入传统村落名录的村落名单",
      "batch_num": "1",
      "longitude": 113.264223,
      "latitude": 39.190418
    },
    {
      "full_address": "忻州市河曲县旧县乡旧县村",
      "city": "忻州",
      "district": "市河曲县",
      "county": "",
      "town": "旧县乡",
      "village": "旧县村",
      "province": "山西省",
      "batch": "第一批列入传统村落名录的村落名单",
      "batch_num": "1",
      "longitude": 111.13808,
      "latitude": 39.38461
    },
    {
      "full_address": "忻州市岢岚县大涧乡寺沟会村",
      "city": "忻州",
      "district": "市岢岚县",
      "county": "",
      "town": "大涧乡",
      "village": "寺沟会村",
      "province": "山西省",
      "batch": "第一批列入传统村落名录的村落名单",
      "batch_num": "1",
      "longitude": 111.572375,
      "latitude": 38.705224
    },
    {
      "full_address": "忻州市岢岚县宋家沟乡北方沟村",
      "city": "忻州",
      "district": "市岢岚县",
      "county": "",
      "town": "宋家沟乡",
      "village": "北方沟村",
      "province": "山西省",
      "batch": "第一批列入传统村落名录的村落名单",
      "batch_num": "1",
      "longitude": 111.574587,
      "latitude": 38.702329
    },
    {
      "full_address": "忻州市偏关县万家寨镇万家寨村",
      "city": "忻州",
      "district": "市偏关县",
      "county": "",
      "town": "万家寨镇",
      "village": "万家寨村",
      "province": "山西省",
      "batch": "第一批列入传统村落名录的村落名单",
      "batch_num": "1",
      "longitude": 111.508745,
      "latitude": 39.437986
    },
    {
      "full_address": "临汾市襄汾县新城镇丁村",
      "city": "临汾市",
      "district": "襄汾县",
      "county": "",
      "town": "新城镇",
      "village": "丁村",
      "province": "山西省",
      "batch": "第一批列入传统村落名录的村落名单",
      "batch_num": "1",
      "longitude": 111.443792,
      "latitude": 35.875086
    },
    {
      "full_address": "临汾市襄汾县汾城镇西中黄村",
      "city": "临汾市",
      "district": "襄汾县",
      "county": "",
      "town": "汾城镇",
      "village": "西中黄村",
      "province": "山西省",
      "batch": "第一批列入传统村落名录的村落名单",
      "batch_num": "1",
      "longitude": 111.443053,
      "latitude": 35.878341
    },
    {
      "full_address": "临汾市襄汾县陶寺乡陶寺村",
      "city": "临汾市",
      "district": "襄汾县",
      "county": "",
      "town": "陶寺乡",
      "village": "陶寺村",
      "province": "山西省",
      "batch": "第一批列入传统村落名录的村落名单",
      "batch_num": "1",
      "longitude": 111.441834,
      "latitude": 35.877919
    },
    {
      "full_address": "临汾市汾西县僧念镇师家沟村",
      "city": "临汾市",
      "district": "汾西县",
      "county": "",
      "town": "僧念镇",
      "village": "师家沟村",
      "province": "山西省",
      "batch": "第一批列入传统村落名录的村落名单",
      "batch_num": "1",
      "longitude": 111.564056,
      "latitude": 36.653315
    },
    {
      "full_address": "吕梁市交口县双池镇西庄村",
      "city": "吕梁市",
      "district": "交口县",
      "county": "",
      "town": "双池镇",
      "village": "西庄村",
      "province": "山西省",
      "batch": "第一批列入传统村落名录的村落名单",
      "batch_num": "1",
      "longitude": 111.180647,
      "latitude": 36.983137
    },
    {
      "full_address": "吕梁市临县碛口镇李家山村",
      "city": "吕梁市",
      "district": "临县",
      "county": "",
      "town": "碛口镇",
      "village": "李家山村",
      "province": "山西省",
      "batch": "第一批列入传统村落名录的村落名单",
      "batch_num": "1",
      "longitude": 110.994615,
      "latitude": 37.949032
    },
    {
      "full_address": "吕梁市临县碛口镇西湾村",
      "city": "吕梁市",
      "district": "临县",
      "county": "",
      "town": "碛口镇",
      "village": "西湾村",
      "province": "山西省",
      "batch": "第一批列入传统村落名录的村落名单",
      "batch_num": "1",
      "longitude": 110.99133,
      "latitude": 37.950968
    },
    {
      "full_address": "吕梁市柳林县柳林镇贺昌村",
      "city": "吕梁市",
      "district": "柳林县",
      "county": "",
      "town": "柳林镇",
      "village": "贺昌村",
      "province": "山西省",
      "batch": "第一批列入传统村落名录的村落名单",
      "batch_num": "1",
      "longitude": 110.890115,
      "latitude": 37.430782
    },
    {
      "full_address": "吕梁市柳林县三交镇三交村",
      "city": "吕梁市",
      "district": "柳林县",
      "county": "",
      "town": "三交镇",
      "village": "三交村",
      "province": "山西省",
      "batch": "第一批列入传统村落名录的村落名单",
      "batch_num": "1",
      "longitude": 110.888741,
      "latitude": 37.43021
    },
    {
      "full_address": "晋中市灵石县两渡镇冷泉村",
      "city": "晋中市",
      "district": "灵石县",
      "county": "",
      "town": "两渡镇",
      "village": "冷泉村",
      "province": "山西省",
      "batch": "第一批列入传统村落名录的村落名单",
      "batch_num": "1",
      "longitude": 111.776398,
      "latitude": 36.848597
    },
    {
      "full_address": "晋中市灵石县夏门镇夏门村",
      "city": "晋中市",
      "district": "灵石县",
      "county": "",
      "town": "夏门镇",
      "village": "夏门村",
      "province": "山西省",
      "batch": "第一批列入传统村落名录的村落名单",
      "batch_num": "1",
      "longitude": 111.776949,
      "latitude": 36.848871
    },
    {
      "full_address": "包头市土默特右旗美岱召镇美岱召村",
      "city": "包头市",
      "district": "土默特右旗",
      "county": "",
      "town": "美岱召镇",
      "village": "美岱召村",
      "province": "内蒙古自治区",
      "batch": "第一批列入传统村落名录的村落名单",
      "batch_num": "1",
      "longitude": 110.526104,
      "latitude": 40.579442
    },
    {
      "full_address": "包头市石拐区五当召镇五当召村",
      "city": "包头市",
      "district": "石拐区",
      "county": "",
      "town": "五当召镇",
      "village": "五当召村",
      "province": "内蒙古自治区",
      "batch": "第一批列入传统村落名录的村落名单",
      "batch_num": "1",
      "longitude": 110.060548,
      "latitude": 40.678521
    },
    {
      "full_address": "乌兰察布市丰镇市隆盛庄镇隆盛庄村",
      "city": "乌兰察布市",
      "district": "丰镇市",
      "county": "",
      "town": "隆盛庄镇",
      "village": "隆盛庄村",
      "province": "内蒙古自治区",
      "batch": "第一批列入传统村落名录的村落名单",
      "batch_num": "1",
      "longitude": 113.108493,
      "latitude": 40.437961
    },
    {
      "full_address": "齐齐哈尔市富裕县友谊达斡尔族满族柯尔克孜族乡宁年村富宁屯",
      "city": "齐齐哈尔市",
      "district": "富裕县",
      "county": "",
      "town": "友谊达斡尔族满族柯尔克孜族乡",
      "village": "宁年村富宁屯",
      "province": "黑龙江省",
      "batch": "第一批列入传统村落名录的村落名单",
      "batch_num": "1",
      "longitude": 124.471933,
      "latitude": 47.776494
    },
    {
      "full_address": "齐齐哈尔市富裕县友谊达斡尔族满族柯尔克孜族乡三家子村",
      "city": "齐齐哈尔市",
      "district": "富裕县",
      "county": "",
      "town": "友谊达斡尔族满族柯尔克孜族乡",
      "village": "三家子村",
      "province": "黑龙江省",
      "batch": "第一批列入传统村落名录的村落名单",
      "batch_num": "1",
      "longitude": 124.472806,
      "latitude": 47.774393
    },
    {
      "full_address": "闵行区马桥镇彭渡村",
      "city": "",
      "district": "闵行区",
      "county": "",
      "town": "马桥镇",
      "village": "彭渡村",
      "province": "上海市",
      "batch": "第一批列入传统村落名录的村落名单",
      "batch_num": "1",
      "longitude": 121.380126,
      "latitude": 31.114125
    },
    {
      "full_address": "闵行区浦江镇革新村",
      "city": "",
      "district": "闵行区",
      "county": "",
      "town": "浦江镇",
      "village": "革新村",
      "province": "上海市",
      "batch": "第一批列入传统村落名录的村落名单",
      "batch_num": "1",
      "longitude": 121.379609,
      "latitude": 31.11256
    },
    {
      "full_address": "宝山区罗店镇东南弄村",
      "city": "",
      "district": "宝山区",
      "county": "",
      "town": "罗店镇",
      "village": "东南弄村",
      "province": "上海市",
      "batch": "第一批列入传统村落名录的村落名单",
      "batch_num": "1",
      "longitude": 119.288567,
      "latitude": 42.041579
    },
    {
      "full_address": "浦东新区康桥镇沔青村",
      "city": "",
      "district": "浦东新区",
      "county": "",
      "town": "康桥镇",
      "village": "沔青村",
      "province": "上海市",
      "batch": "第一批列入传统村落名录的村落名单",
      "batch_num": "1",
      "longitude": 121.546313,
      "latitude": 31.222327
    },
    {
      "full_address": "松江区泗泾镇下塘村",
      "city": "",
      "district": "松江区",
      "county": "",
      "town": "泗泾镇",
      "village": "下塘村",
      "province": "上海市",
      "batch": "第一批列入传统村落名录的村落名单",
      "batch_num": "1",
      "longitude": 121.229137,
      "latitude": 31.030974
    },
    {
      "full_address": "无锡市惠山区玉祁镇礼社村",
      "city": "无锡市",
      "district": "惠山区",
      "county": "",
      "town": "玉祁镇",
      "village": "礼社村",
      "province": "江苏省",
      "batch": "第一批列入传统村落名录的村落名单",
      "batch_num": "1",
      "longitude": 120.300088,
      "latitude": 31.682112
    },
    {
      "full_address": "苏州市吴中区东山镇陆巷古村",
      "city": "苏州",
      "district": "市吴中区",
      "county": "",
      "town": "东山镇",
      "village": "陆巷古村",
      "province": "江苏省",
      "batch": "第一批列入传统村落名录的村落名单",
      "batch_num": "1",
      "longitude": 120.634579,
      "latitude": 31.261214
    },
    {
      "full_address": "苏州市吴中区金庭镇明月湾村",
      "city": "苏州",
      "district": "市吴中区",
      "county": "",
      "town": "金庭镇",
      "village": "明月湾村",
      "province": "江苏省",
      "batch": "第一批列入传统村落名录的村落名单",
      "batch_num": "1",
      "longitude": 120.630047,
      "latitude": 31.262278
    },
    {
      "full_address": "杭州市富阳市龙门镇龙门村",
      "city": "杭州",
      "district": "市富阳市",
      "county": "",
      "town": "龙门镇",
      "village": "龙门村",
      "province": "浙江省",
      "batch": "第一批列入传统村落名录的村落名单",
      "batch_num": "1",
      "longitude": 119.960102,
      "latitude": 30.047555
    },
    {
      "full_address": "杭州市建德市大慈岩镇新叶村",
      "city": "杭州",
      "district": "市建德市",
      "county": "",
      "town": "大慈岩镇",
      "village": "新叶村",
      "province": "浙江省",
      "batch": "第一批列入传统村落名录的村落名单",
      "batch_num": "1",
      "longitude": 119.281781,
      "latitude": 29.476613
    },
    {
      "full_address": "杭州市桐庐县江南镇深奥村",
      "city": "杭州",
      "district": "市桐庐县",
      "county": "",
      "town": "江南镇",
      "village": "深奥村",
      "province": "浙江省",
      "batch": "第一批列入传统村落名录的村落名单",
      "batch_num": "1",
      "longitude": 119.69373,
      "latitude": 29.794815
    },
    {
      "full_address": "宁波市奉化市溪口镇岩头村",
      "city": "宁波市",
      "district": "奉化市",
      "county": "",
      "town": "溪口镇",
      "village": "岩头村",
      "province": "浙江省",
      "batch": "第一批列入传统村落名录的村落名单",
      "batch_num": "1",
      "longitude": 121.40507,
      "latitude": 29.656969
    },
    {
      "full_address": "宁波市象山县石浦镇东门渔村",
      "city": "宁波市",
      "district": "象山县",
      "county": "",
      "town": "石浦镇",
      "village": "东门渔村",
      "province": "浙江省",
      "batch": "第一批列入传统村落名录的村落名单",
      "batch_num": "1",
      "longitude": 121.867989,
      "latitude": 29.474468
    },
    {
      "full_address": "宁波市余姚市大岚镇柿林村",
      "city": "宁波市",
      "district": "余姚市",
      "county": "",
      "town": "大岚镇",
      "village": "柿林村",
      "province": "浙江省",
      "batch": "第一批列入传统村落名录的村落名单",
      "batch_num": "1",
      "longitude": 121.156608,
      "latitude": 30.038656
    },
    {
      "full_address": "宁波市余姚市梨洲街道金冠村",
      "city": "宁波市",
      "district": "余姚市",
      "county": "",
      "town": "梨洲街道",
      "village": "金冠村",
      "province": "浙江省",
      "batch": "第一批列入传统村落名录的村落名单",
      "batch_num": "1",
      "longitude": 121.152267,
      "latitude": 30.040172
    },
    {
      "full_address": "宁波市余姚市鹿亭乡中村",
      "city": "宁波市",
      "district": "余姚市",
      "county": "",
      "town": "鹿亭乡",
      "village": "中村",
      "province": "浙江省",
      "batch": "第一批列入传统村落名录的村落名单",
      "batch_num": "1",
      "longitude": 121.156772,
      "latitude": 30.039902
    },
    {
      "full_address": "宁波市宁海县茶院乡许民村",
      "city": "宁波市",
      "district": "宁海县",
      "county": "",
      "town": "茶院乡",
      "village": "许民村",
      "province": "浙江省",
      "batch": "第一批列入传统村落名录的村落名单",
      "batch_num": "1",
      "longitude": 121.429867,
      "latitude": 29.285727
    },
    {
      "full_address": "温州市苍南县矾山镇福德湾村",
      "city": "温州",
      "district": "市苍南县",
      "county": "",
      "town": "矾山镇",
      "village": "福德湾村",
      "province": "浙江省",
      "batch": "第一批列入传统村落名录的村落名单",
      "batch_num": "1",
      "longitude": 120.427261,
      "latitude": 27.517777
    },
    {
      "full_address": "温州市苍南县桥墩镇碗窑村",
      "city": "温州",
      "district": "市苍南县",
      "county": "",
      "town": "桥墩镇",
      "village": "碗窑村",
      "province": "浙江省",
      "batch": "第一批列入传统村落名录的村落名单",
      "batch_num": "1",
      "longitude": 120.424797,
      "latitude": 27.517257
    },
    {
      "full_address": "温州市乐清市仙溪镇南阁村",
      "city": "温州",
      "district": "市乐清市",
      "county": "",
      "town": "仙溪镇",
      "village": "南阁村",
      "province": "浙江省",
      "batch": "第一批列入传统村落名录的村落名单",
      "batch_num": "1",
      "longitude": 120.984836,
      "latitude": 28.111701
    },
    {
      "full_address": "温州市永嘉县岩头镇芙蓉村",
      "city": "温州",
      "district": "市永嘉县",
      "county": "",
      "town": "岩头镇",
      "village": "芙蓉村",
      "province": "浙江省",
      "batch": "第一批列入传统村落名录的村落名单",
      "batch_num": "1",
      "longitude": 120.690982,
      "latitude": 28.15623
    },
    {
      "full_address": "温州市永嘉县岩坦镇屿北村",
      "city": "温州",
      "district": "市永嘉县",
      "county": "",
      "town": "岩坦镇",
      "village": "屿北村",
      "province": "浙江省",
      "batch": "第一批列入传统村落名录的村落名单",
      "batch_num": "1",
      "longitude": 120.690234,
      "latitude": 28.152392
    },
    {
      "full_address": "湖州市南浔区和孚镇荻港村",
      "city": "湖州",
      "district": "市南浔区",
      "county": "",
      "town": "和孚镇",
      "village": "荻港村",
      "province": "浙江省",
      "batch": "第一批列入传统村落名录的村落名单",
      "batch_num": "1",
      "longitude": 120.417105,
      "latitude": 30.853325
    },
    {
      "full_address": "绍兴市嵊州市金庭镇华堂村",
      "city": "绍兴市",
      "district": "嵊州市",
      "county": "",
      "town": "金庭镇",
      "village": "华堂村",
      "province": "浙江省",
      "batch": "第一批列入传统村落名录的村落名单",
      "batch_num": "1",
      "longitude": 120.83143,
      "latitude": 29.56395
    },
    {
      "full_address": "绍兴市诸暨市东白湖镇斯宅村",
      "city": "绍兴市",
      "district": "诸暨市",
      "county": "",
      "town": "东白湖镇",
      "village": "斯宅村",
      "province": "浙江省",
      "batch": "第一批列入传统村落名录的村落名单",
      "batch_num": "1",
      "longitude": 120.244796,
      "latitude": 29.707522
    },
    {
      "full_address": "绍兴市绍兴县稽东镇冢斜村",
      "city": "绍兴市",
      "district": "绍兴县",
      "county": "",
      "town": "稽东镇",
      "village": "冢斜村",
      "province": "浙江省",
      "batch": "第一批列入传统村落名录的村落名单",
      "batch_num": "1",
      "longitude": 111.128053,
      "latitude": 38.461056
    },
    {
      "full_address": "金华市金东区傅村镇山头下村",
      "city": "金华市",
      "district": "金东区",
      "county": "",
      "town": "傅村镇",
      "village": "山头下村",
      "province": "浙江省",
      "batch": "第一批列入传统村落名录的村落名单",
      "batch_num": "1",
      "longitude": 119.693958,
      "latitude": 29.100023
    },
    {
      "full_address": "金华市磐安县尖山镇管头村",
      "city": "金华市",
      "district": "磐安县",
      "county": "",
      "town": "尖山镇",
      "village": "管头村",
      "province": "浙江省",
      "batch": "第一批列入传统村落名录的村落名单",
      "batch_num": "1",
      "longitude": 120.449044,
      "latitude": 29.053024
    },
    {
      "full_address": "金华市磐安县双溪乡梓誉村",
      "city": "金华市",
      "district": "磐安县",
      "county": "",
      "town": "双溪乡",
      "village": "梓誉村",
      "province": "浙江省",
      "batch": "第一批列入传统村落名录的村落名单",
      "batch_num": "1",
      "longitude": 120.450489,
      "latitude": 29.053191
    },
    {
      "full_address": "金华市浦江县白马镇嵩溪村",
      "city": "金华市",
      "district": "浦江县",
      "county": "",
      "town": "白马镇",
      "village": "嵩溪村",
      "province": "浙江省",
      "batch": "第一批列入传统村落名录的村落名单",
      "batch_num": "1",
      "longitude": 119.893896,
      "latitude": 29.452822
    },
    {
      "full_address": "金华市浦江县虞宅乡新光村",
      "city": "金华市",
      "district": "浦江县",
      "county": "",
      "town": "虞宅乡",
      "village": "新光村",
      "province": "浙江省",
      "batch": "第一批列入传统村落名录的村落名单",
      "batch_num": "1",
      "longitude": 119.891343,
      "latitude": 29.452734
    },
    {
      "full_address": "金华市浦江县郑宅镇郑宅镇区",
      "city": "金华市",
      "district": "浦江县",
      "county": "",
      "town": "郑宅镇",
      "village": "郑宅镇区",
      "province": "浙江省",
      "batch": "第一批列入传统村落名录的村落名单",
      "batch_num": "1",
      "longitude": 119.894604,
      "latitude": 29.453733
    },
    {
      "full_address": "金华市婺城区汤溪镇寺平村",
      "city": "金华市",
      "district": "婺城区",
      "county": "",
      "town": "汤溪镇",
      "village": "寺平村",
      "province": "浙江省",
      "batch": "第一批列入传统村落名录的村落名单",
      "batch_num": "1",
      "longitude": 113.603143,
      "latitude": 37.847811
    },
    {
      "full_address": "金华市武义县大溪口乡山下鲍村",
      "city": "金华市",
      "district": "武义县",
      "county": "",
      "town": "大溪口乡",
      "village": "山下鲍村",
      "province": "浙江省",
      "batch": "第一批列入传统村落名录的村落名单",
      "batch_num": "1",
      "longitude": 121.240084,
      "latitude": 41.535837
    },
    {
      "full_address": "金华市武义县熟溪街道郭洞村",
      "city": "金华市",
      "district": "武义县",
      "county": "",
      "town": "熟溪街道",
      "village": "郭洞村",
      "province": "浙江省",
      "batch": "第一批列入传统村落名录的村落名单",
      "batch_num": "1",
      "longitude": 121.238987,
      "latitude": 41.53128
    },
    {
      "full_address": "金华市武义县俞源乡俞源村",
      "city": "金华市",
      "district": "武义县",
      "county": "",
      "town": "俞源乡",
      "village": "俞源村",
      "province": "浙江省",
      "batch": "第一批列入传统村落名录的村落名单",
      "batch_num": "1",
      "longitude": 121.241807,
      "latitude": 41.533285
    },
    {
      "full_address": "金华市永康市前仓镇后吴村",
      "city": "金华市",
      "district": "永康市",
      "county": "",
      "town": "前仓镇",
      "village": "后吴村",
      "province": "浙江省",
      "batch": "第一批列入传统村落名录的村落名单",
      "batch_num": "1",
      "longitude": 120.048891,
      "latitude": 28.888893
    },
    {
      "full_address": "衢州市龙游县石佛乡三门源村",
      "city": "衢州",
      "district": "市龙游县",
      "county": "",
      "town": "石佛乡",
      "village": "三门源村",
      "province": "浙江省",
      "batch": "第一批列入传统村落名录的村落名单",
      "batch_num": "1",
      "longitude": 119.173814,
      "latitude": 29.028507
    },
    {
      "full_address": "衢州市江山市大陈乡大陈村",
      "city": "衢州",
      "district": "市江山市",
      "county": "",
      "town": "大陈乡",
      "village": "大陈村",
      "province": "浙江省",
      "batch": "第一批列入传统村落名录的村落名单",
      "batch_num": "1",
      "longitude": 118.627487,
      "latitude": 28.737618
    },
    {
      "full_address": "舟山市岱山县东沙镇东沙村",
      "city": "舟山市",
      "district": "岱山县",
      "county": "",
      "town": "东沙镇",
      "village": "东沙村",
      "province": "浙江省",
      "batch": "第一批列入传统村落名录的村落名单",
      "batch_num": "1",
      "longitude": 122.227939,
      "latitude": 30.266063
    },
    {
      "full_address": "台州市仙居县田市镇李宅村",
      "city": "台州",
      "district": "市仙居县",
      "county": "",
      "town": "田市镇",
      "village": "李宅村",
      "province": "浙江省",
      "batch": "第一批列入传统村落名录的村落名单",
      "batch_num": "1",
      "longitude": 120.728469,
      "latitude": 28.84615
    },
    {
      "full_address": "台州市仙居县白塔镇高迁村",
      "city": "台州",
      "district": "市仙居县",
      "county": "",
      "town": "白塔镇",
      "village": "高迁村",
      "province": "浙江省",
      "batch": "第一批列入传统村落名录的村落名单",
      "batch_num": "1",
      "longitude": 120.727711,
      "latitude": 28.844751
    },
    {
      "full_address": "丽水市缙云县新建镇河阳村",
      "city": "丽水市",
      "district": "缙云县",
      "county": "",
      "town": "新建镇",
      "village": "河阳村",
      "province": "浙江省",
      "batch": "第一批列入传统村落名录的村落名单",
      "batch_num": "1",
      "longitude": 120.091735,
      "latitude": 28.65778
    },
    {
      "full_address": "丽水市景宁县大际乡西一村",
      "city": "丽水市",
      "district": "景宁县",
      "county": "",
      "town": "大际乡",
      "village": "西一村",
      "province": "浙江省",
      "batch": "第一批列入传统村落名录的村落名单",
      "batch_num": "1",
      "longitude": 107.911337,
      "latitude": 35.510387
    },
    {
      "full_address": "丽水市龙泉市城北乡上田村",
      "city": "丽水市",
      "district": "龙泉市",
      "county": "",
      "town": "城北乡",
      "village": "上田村",
      "province": "浙江省",
      "batch": "第一批列入传统村落名录的村落名单",
      "batch_num": "1",
      "longitude": 119.143253,
      "latitude": 28.075259
    },
    {
      "full_address": "丽水市龙泉市兰巨乡官浦垟村",
      "city": "丽水市",
      "district": "龙泉市",
      "county": "",
      "town": "兰巨乡",
      "village": "官浦垟村",
      "province": "浙江省",
      "batch": "第一批列入传统村落名录的村落名单",
      "batch_num": "1",
      "longitude": 119.139096,
      "latitude": 28.074469
    },
    {
      "full_address": "丽水市龙泉市西街街道宫头村",
      "city": "丽水市",
      "district": "龙泉市",
      "county": "",
      "town": "西街街道",
      "village": "宫头村",
      "province": "浙江省",
      "batch": "第一批列入传统村落名录的村落名单",
      "batch_num": "1",
      "longitude": 119.142251,
      "latitude": 28.075349
    },
    {
      "full_address": "丽水市龙泉市小梅镇大窑村",
      "city": "丽水市",
      "district": "龙泉市",
      "county": "",
      "town": "小梅镇",
      "village": "大窑村",
      "province": "浙江省",
      "batch": "第一批列入传统村落名录的村落名单",
      "batch_num": "1",
      "longitude": 119.139031,
      "latitude": 28.075046
    },
    {
      "full_address": "丽水市龙泉市小梅镇金村村",
      "city": "丽水市",
      "district": "龙泉市",
      "county": "",
      "town": "小梅镇",
      "village": "金村村",
      "province": "浙江省",
      "batch": "第一批列入传统村落名录的村落名单",
      "batch_num": "1",
      "longitude": 119.143551,
      "latitude": 28.075298
    },
    {
      "full_address": "丽水市遂昌县焦滩乡独山村",
      "city": "丽水市",
      "district": "遂昌县",
      "county": "",
      "town": "焦滩乡",
      "village": "独山村",
      "province": "浙江省",
      "batch": "第一批列入传统村落名录的村落名单",
      "batch_num": "1",
      "longitude": 119.278084,
      "latitude": 28.590386
    },
    {
      "full_address": "丽水市庆元县濛州街道大济村",
      "city": "丽水市",
      "district": "庆元县",
      "county": "",
      "town": "濛州街道",
      "village": "大济村",
      "province": "浙江省",
      "batch": "第一批列入传统村落名录的村落名单",
      "batch_num": "1",
      "longitude": 119.06097,
      "latitude": 27.618678
    },
    {
      "full_address": "安庆市太湖县汤泉乡金鹰村蔡畈古民居",
      "city": "安庆市",
      "district": "太湖县",
      "county": "",
      "town": "汤泉乡",
      "village": "金鹰村蔡畈古民居",
      "province": "安徽省",
      "batch": "第一批列入传统村落名录的村落名单",
      "batch_num": "1",
      "longitude": 116.310128,
      "latitude": 30.452213
    },
    {
      "full_address": "安庆市太湖县汤泉乡龙潭寨古民居",
      "city": "安庆市",
      "district": "太湖县",
      "county": "",
      "town": "汤泉乡",
      "village": "龙潭寨古民居",
      "province": "安徽省",
      "batch": "第一批列入传统村落名录的村落名单",
      "batch_num": "1",
      "longitude": 116.306943,
      "latitude": 30.453775
    },
    {
      "full_address": "黄山市黄山区永丰乡永丰村",
      "city": "黄山市",
      "district": "黄山区",
      "county": "",
      "town": "永丰乡",
      "village": "永丰村",
      "province": "安徽省",
      "batch": "第一批列入传统村落名录的村落名单",
      "batch_num": "1",
      "longitude": 118.142396,
      "latitude": 30.272425
    },
    {
      "full_address": "黄山市徽州区呈坎镇呈坎村",
      "city": "黄山市",
      "district": "徽州区",
      "county": "",
      "town": "呈坎镇",
      "village": "呈坎村",
      "province": "安徽省",
      "batch": "第一批列入传统村落名录的村落名单",
      "batch_num": "1",
      "longitude": 118.335177,
      "latitude": 29.827322
    },
    {
      "full_address": "黄山市徽州区呈坎镇灵山村",
      "city": "黄山市",
      "district": "徽州区",
      "county": "",
      "town": "呈坎镇",
      "village": "灵山村",
      "province": "安徽省",
      "batch": "第一批列入传统村落名录的村落名单",
      "batch_num": "1",
      "longitude": 118.33808,
      "latitude": 29.827256
    },
    {
      "full_address": "黄山市徽州区潜口镇潜口村",
      "city": "黄山市",
      "district": "徽州区",
      "county": "",
      "town": "潜口镇",
      "village": "潜口村",
      "province": "安徽省",
      "batch": "第一批列入传统村落名录的村落名单",
      "batch_num": "1",
      "longitude": 118.338434,
      "latitude": 29.82655
    },
    {
      "full_address": "黄山市徽州区潜口镇唐模村",
      "city": "黄山市",
      "district": "徽州区",
      "county": "",
      "town": "潜口镇",
      "village": "唐模村",
      "province": "安徽省",
      "batch": "第一批列入传统村落名录的村落名单",
      "batch_num": "1",
      "longitude": 118.338956,
      "latitude": 29.828336
    },
    {
      "full_address": "黄山市祁门县闪里镇坑口村",
      "city": "黄山市",
      "district": "祁门县",
      "county": "",
      "town": "闪里镇",
      "village": "坑口村",
      "province": "安徽省",
      "batch": "第一批列入传统村落名录的村落名单",
      "batch_num": "1",
      "longitude": 117.715706,
      "latitude": 29.854984
    },
    {
      "full_address": "黄山市休宁县万安镇万安老街",
      "city": "黄山市",
      "district": "休宁县",
      "county": "",
      "town": "万安镇",
      "village": "万安老街",
      "province": "安徽省",
      "batch": "第一批列入传统村落名录的村落名单",
      "batch_num": "1",
      "longitude": 118.19597,
      "latitude": 29.785893
    },
    {
      "full_address": "黄山市休宁县商山镇黄村",
      "city": "黄山市",
      "district": "休宁县",
      "county": "",
      "town": "商山镇",
      "village": "黄村",
      "province": "安徽省",
      "batch": "第一批列入传统村落名录的村落名单",
      "batch_num": "1",
      "longitude": 118.194432,
      "latitude": 29.784837
    },
    {
      "full_address": "黄山市黟县宏村镇宏村",
      "city": "黄山市",
      "district": "黟县",
      "county": "",
      "town": "宏村镇",
      "village": "宏村",
      "province": "安徽省",
      "batch": "第一批列入传统村落名录的村落名单",
      "batch_num": "1",
      "longitude": 117.936951,
      "latitude": 29.925798
    },
    {
      "full_address": "黄山市黟县宏村镇卢村",
      "city": "黄山市",
      "district": "黟县",
      "county": "",
      "town": "宏村镇",
      "village": "卢村",
      "province": "安徽省",
      "batch": "第一批列入传统村落名录的村落名单",
      "batch_num": "1",
      "longitude": 117.937256,
      "latitude": 29.924636
    },
    {
      "full_address": "黄山市黟县宏村镇屏山村",
      "city": "黄山市",
      "district": "黟县",
      "county": "",
      "town": "宏村镇",
      "village": "屏山村",
      "province": "安徽省",
      "batch": "第一批列入传统村落名录的村落名单",
      "batch_num": "1",
      "longitude": 117.940639,
      "latitude": 29.924851
    },
    {
      "full_address": "黄山市黟县碧阳镇关麓村",
      "city": "黄山市",
      "district": "黟县",
      "county": "",
      "town": "碧阳镇",
      "village": "关麓村",
      "province": "安徽省",
      "batch": "第一批列入传统村落名录的村落名单",
      "batch_num": "1",
      "longitude": 117.936756,
      "latitude": 29.925015
    },
    {
      "full_address": "黄山市黟县碧阳镇南屏村",
      "city": "黄山市",
      "district": "黟县",
      "county": "",
      "town": "碧阳镇",
      "village": "南屏村",
      "province": "安徽省",
      "batch": "第一批列入传统村落名录的村落名单",
      "batch_num": "1",
      "longitude": 117.940317,
      "latitude": 29.923751
    },
    {
      "full_address": "黄山市黟县西递镇西递村",
      "city": "黄山市",
      "district": "黟县",
      "county": "",
      "town": "西递镇",
      "village": "西递村",
      "province": "安徽省",
      "batch": "第一批列入传统村落名录的村落名单",
      "batch_num": "1",
      "longitude": 117.940181,
      "latitude": 29.926356
    },
    {
      "full_address": "黄山市歙县徽城镇渔梁村",
      "city": "黄山市",
      "district": "歙县",
      "county": "",
      "town": "徽城镇",
      "village": "渔梁村",
      "province": "安徽省",
      "batch": "第一批列入传统村落名录的村落名单",
      "batch_num": "1",
      "longitude": 118.413395,
      "latitude": 29.860316
    },
    {
      "full_address": "黄山市歙县郑村镇棠樾村",
      "city": "黄山市",
      "district": "歙县",
      "county": "",
      "town": "郑村镇",
      "village": "棠樾村",
      "province": "安徽省",
      "batch": "第一批列入传统村落名录的村落名单",
      "batch_num": "1",
      "longitude": 118.414778,
      "latitude": 29.860252
    },
    {
      "full_address": "池州市东至县花园乡南溪古寨",
      "city": "池州",
      "district": "市东至县",
      "county": "",
      "town": "花园乡",
      "village": "南溪古寨",
      "province": "安徽省",
      "batch": "第一批列入传统村落名录的村落名单",
      "batch_num": "1",
      "longitude": 117.027744,
      "latitude": 30.110592
    },
    {
      "full_address": "池州市贵池区墩上街道渚湖姜村",
      "city": "池州",
      "district": "市贵池区",
      "county": "",
      "town": "墩上街道",
      "village": "渚湖姜村",
      "province": "安徽省",
      "batch": "第一批列入传统村落名录的村落名单",
      "batch_num": "1",
      "longitude": 117.568205,
      "latitude": 30.689809
    },
    {
      "full_address": "池州市贵池区棠溪镇石门高村",
      "city": "池州",
      "district": "市贵池区",
      "county": "",
      "town": "棠溪镇",
      "village": "石门高村",
      "province": "安徽省",
      "batch": "第一批列入传统村落名录的村落名单",
      "batch_num": "1",
      "longitude": 117.566997,
      "latitude": 30.68818
    },
    {
      "full_address": "宣城市泾县桃花潭镇查济村",
      "city": "宣城市",
      "district": "泾县",
      "county": "",
      "town": "桃花潭镇",
      "village": "查济村",
      "province": "安徽省",
      "batch": "第一批列入传统村落名录的村落名单",
      "batch_num": "1",
      "longitude": 118.418125,
      "latitude": 30.69063
    },
    {
      "full_address": "宣城市泾县榔桥镇黄田村",
      "city": "宣城市",
      "district": "泾县",
      "county": "",
      "town": "榔桥镇",
      "village": "黄田村",
      "province": "安徽省",
      "batch": "第一批列入传统村落名录的村落名单",
      "batch_num": "1",
      "longitude": 118.419606,
      "latitude": 30.687951
    },
    {
      "full_address": "宣城市旌德县白地镇江村",
      "city": "宣城市",
      "district": "旌德县",
      "county": "",
      "town": "白地镇",
      "village": "江村",
      "province": "安徽省",
      "batch": "第一批列入传统村落名录的村落名单",
      "batch_num": "1",
      "longitude": 118.552098,
      "latitude": 30.298281
    },
    {
      "full_address": "宣城市绩溪县瀛洲镇龙川村",
      "city": "宣城市",
      "district": "绩溪县",
      "county": "",
      "town": "瀛洲镇",
      "village": "龙川村",
      "province": "安徽省",
      "batch": "第一批列入传统村落名录的村落名单",
      "batch_num": "1",
      "longitude": 118.578384,
      "latitude": 30.065497
    },
    {
      "full_address": "福州市马尾区亭江镇闽安村",
      "city": "福州",
      "district": "市马尾区",
      "county": "",
      "town": "亭江镇",
      "village": "闽安村",
      "province": "福建省",
      "batch": "第一批列入传统村落名录的村落名单",
      "batch_num": "1",
      "longitude": 119.438456,
      "latitude": 25.997507
    },
    {
      "full_address": "福州市长乐市航城街道琴江村",
      "city": "福州",
      "district": "市长乐市",
      "county": "",
      "town": "航城街道",
      "village": "琴江村",
      "province": "福建省",
      "batch": "第一批列入传统村落名录的村落名单",
      "batch_num": "1",
      "longitude": 119.59121,
      "latitude": 25.889886
    },
    {
      "full_address": "三明市清流县赖坊乡赖安村",
      "city": "三明市",
      "district": "清流县",
      "county": "",
      "town": "赖坊乡",
      "village": "赖安村",
      "province": "福建省",
      "batch": "第一批列入传统村落名录的村落名单",
      "batch_num": "1",
      "longitude": 116.816974,
      "latitude": 26.176135
    },
    {
      "full_address": "三明市大田县济阳乡济阳村",
      "city": "三明市",
      "district": "大田县",
      "county": "",
      "town": "济阳乡",
      "village": "济阳村",
      "province": "福建省",
      "batch": "第一批列入传统村落名录的村落名单",
      "batch_num": "1",
      "longitude": 117.846146,
      "latitude": 25.694156
    },
    {
      "full_address": "三明市建宁县溪源乡上坪村",
      "city": "三明市",
      "district": "建宁县",
      "county": "",
      "town": "溪源乡",
      "village": "上坪村",
      "province": "福建省",
      "batch": "第一批列入传统村落名录的村落名单",
      "batch_num": "1",
      "longitude": 116.849053,
      "latitude": 26.833966
    },
    {
      "full_address": "三明市将乐县万全乡良地村",
      "city": "三明市",
      "district": "将乐县",
      "county": "",
      "town": "万全乡",
      "village": "良地村",
      "province": "福建省",
      "batch": "第一批列入传统村落名录的村落名单",
      "batch_num": "1",
      "longitude": 117.469548,
      "latitude": 26.729592
    },
    {
      "full_address": "三明市明溪县胡坊镇肖家山村",
      "city": "三明市",
      "district": "明溪县",
      "county": "",
      "town": "胡坊镇",
      "village": "肖家山村",
      "province": "福建省",
      "batch": "第一批列入传统村落名录的村落名单",
      "batch_num": "1",
      "longitude": 117.200687,
      "latitude": 26.356132
    },
    {
      "full_address": "三明市明溪县夏阳乡御帘村",
      "city": "三明市",
      "district": "明溪县",
      "county": "",
      "town": "夏阳乡",
      "village": "御帘村",
      "province": "福建省",
      "batch": "第一批列入传统村落名录的村落名单",
      "batch_num": "1",
      "longitude": 117.204617,
      "latitude": 26.358012
    },
    {
      "full_address": "三明市尤溪县台溪乡盖竹村",
      "city": "三明市",
      "district": "尤溪县",
      "county": "",
      "town": "台溪乡",
      "village": "盖竹村",
      "province": "福建省",
      "batch": "第一批列入传统村落名录的村落名单",
      "batch_num": "1",
      "longitude": 118.192122,
      "latitude": 26.17003
    },
    {
      "full_address": "三明市尤溪县台溪乡书京村",
      "city": "三明市",
      "district": "尤溪县",
      "county": "",
      "town": "台溪乡",
      "village": "书京村",
      "province": "福建省",
      "batch": "第一批列入传统村落名录的村落名单",
      "batch_num": "1",
      "longitude": 118.190957,
      "latitude": 26.167986
    },
    {
      "full_address": "三明市尤溪县西滨镇厚丰村",
      "city": "三明市",
      "district": "尤溪县",
      "county": "",
      "town": "西滨镇",
      "village": "厚丰村",
      "province": "福建省",
      "batch": "第一批列入传统村落名录的村落名单",
      "batch_num": "1",
      "longitude": 118.188619,
      "latitude": 26.167506
    },
    {
      "full_address": "三明市尤溪县新阳镇双鲤村",
      "city": "三明市",
      "district": "尤溪县",
      "county": "",
      "town": "新阳镇",
      "village": "双鲤村",
      "province": "福建省",
      "batch": "第一批列入传统村落名录的村落名单",
      "batch_num": "1",
      "longitude": 118.191112,
      "latitude": 26.167136
    },
    {
      "full_address": "三明市尤溪县洋中镇桂峰村",
      "city": "三明市",
      "district": "尤溪县",
      "county": "",
      "town": "洋中镇",
      "village": "桂峰村",
      "province": "福建省",
      "batch": "第一批列入传统村落名录的村落名单",
      "batch_num": "1",
      "longitude": 118.190565,
      "latitude": 26.17106
    },
    {
      "full_address": "三明市泰宁县新桥乡大源村",
      "city": "三明市",
      "district": "泰宁县",
      "county": "",
      "town": "新桥乡",
      "village": "大源村",
      "province": "福建省",
      "batch": "第一批列入传统村落名录的村落名单",
      "batch_num": "1",
      "longitude": 117.173976,
      "latitude": 26.900499
    },
    {
      "full_address": "泉州市晋江市金井镇福全村",
      "city": "泉州",
      "district": "市晋江市",
      "county": "",
      "town": "金井镇",
      "village": "福全村",
      "province": "福建省",
      "batch": "第一批列入传统村落名录的村落名单",
      "batch_num": "1",
      "longitude": 118.554119,
      "latitude": 24.782991
    },
    {
      "full_address": "泉州市永春县岵山镇茂霞村",
      "city": "泉州",
      "district": "市永春县",
      "county": "",
      "town": "岵山镇",
      "village": "茂霞村",
      "province": "福建省",
      "batch": "第一批列入传统村落名录的村落名单",
      "batch_num": "1",
      "longitude": 118.294581,
      "latitude": 25.320215
    },
    {
      "full_address": "漳州市平和县大溪镇庄上村",
      "city": "漳州",
      "district": "市平和县",
      "county": "",
      "town": "大溪镇",
      "village": "庄上村",
      "province": "福建省",
      "batch": "第一批列入传统村落名录的村落名单",
      "batch_num": "1",
      "longitude": 118.353541,
      "latitude": 31.742325
    },
    {
      "full_address": "漳州市平和县霞寨镇钟腾村",
      "city": "漳州",
      "district": "市平和县",
      "county": "",
      "town": "霞寨镇",
      "village": "钟腾村",
      "province": "福建省",
      "batch": "第一批列入传统村落名录的村落名单",
      "batch_num": "1",
      "longitude": 118.351214,
      "latitude": 31.74376
    },
    {
      "full_address": "漳州市南靖县书洋镇田螺坑村",
      "city": "漳州",
      "district": "市南靖县",
      "county": "",
      "town": "书洋镇",
      "village": "田螺坑村",
      "province": "福建省",
      "batch": "第一批列入传统村落名录的村落名单",
      "batch_num": "1",
      "longitude": 117.354762,
      "latitude": 24.514778
    },
    {
      "full_address": "南平市武夷山市武夷街道下梅村",
      "city": "南平市",
      "district": "武夷山市",
      "county": "",
      "town": "武夷街道",
      "village": "下梅村",
      "province": "福建省",
      "batch": "第一批列入传统村落名录的村落名单",
      "batch_num": "1",
      "longitude": 118.03633,
      "latitude": 27.754376
    },
    {
      "full_address": "南平市武夷山市兴田镇城村",
      "city": "南平市",
      "district": "武夷山市",
      "county": "",
      "town": "兴田镇",
      "village": "城村",
      "province": "福建省",
      "batch": "第一批列入传统村落名录的村落名单",
      "batch_num": "1",
      "longitude": 118.037819,
      "latitude": 27.753948
    },
    {
      "full_address": "南平市顺昌县大干镇上湖村",
      "city": "南平市",
      "district": "顺昌县",
      "county": "",
      "town": "大干镇",
      "village": "上湖村",
      "province": "福建省",
      "batch": "第一批列入传统村落名录的村落名单",
      "batch_num": "1",
      "longitude": 117.810771,
      "latitude": 26.794092
    },
    {
      "full_address": "龙岩市连城县庙前镇芷溪村",
      "city": "龙岩市",
      "district": "连城县",
      "county": "",
      "town": "庙前镇",
      "village": "芷溪村",
      "province": "福建省",
      "batch": "第一批列入传统村落名录的村落名单",
      "batch_num": "1",
      "longitude": 116.752945,
      "latitude": 25.709376
    },
    {
      "full_address": "龙岩市连城县宣和乡培田村",
      "city": "龙岩市",
      "district": "连城县",
      "county": "",
      "town": "宣和乡",
      "village": "培田村",
      "province": "福建省",
      "batch": "第一批列入传统村落名录的村落名单",
      "batch_num": "1",
      "longitude": 116.754015,
      "latitude": 25.710867
    },
    {
      "full_address": "龙岩市连城县莒溪镇壁洲村",
      "city": "龙岩市",
      "district": "连城县",
      "county": "",
      "town": "莒溪镇",
      "village": "壁洲村",
      "province": "福建省",
      "batch": "第一批列入传统村落名录的村落名单",
      "batch_num": "1",
      "longitude": 116.754596,
      "latitude": 25.712348
    },
    {
      "full_address": "龙岩市连城县四堡乡务阁村",
      "city": "龙岩市",
      "district": "连城县",
      "county": "",
      "town": "四堡乡",
      "village": "务阁村",
      "province": "福建省",
      "batch": "第一批列入传统村落名录的村落名单",
      "batch_num": "1",
      "longitude": 116.754622,
      "latitude": 25.712541
    },
    {
      "full_address": "龙岩市长汀县馆前镇坪埔村",
      "city": "龙岩市",
      "district": "长汀县",
      "county": "",
      "town": "馆前镇",
      "village": "坪埔村",
      "province": "福建省",
      "batch": "第一批列入传统村落名录的村落名单",
      "batch_num": "1",
      "longitude": 116.356811,
      "latitude": 25.832038
    },
    {
      "full_address": "龙岩市长汀县三洲镇三洲村",
      "city": "龙岩市",
      "district": "长汀县",
      "county": "",
      "town": "三洲镇",
      "village": "三洲村",
      "province": "福建省",
      "batch": "第一批列入传统村落名录的村落名单",
      "batch_num": "1",
      "longitude": 116.359067,
      "latitude": 25.833284
    },
    {
      "full_address": "龙岩市长汀县红山乡苏竹村",
      "city": "龙岩市",
      "district": "长汀县",
      "county": "",
      "town": "红山乡",
      "village": "苏竹村",
      "province": "福建省",
      "batch": "第一批列入传统村落名录的村落名单",
      "batch_num": "1",
      "longitude": 116.355947,
      "latitude": 25.832738
    },
    {
      "full_address": "龙岩市上杭县太拔乡院田村",
      "city": "龙岩市",
      "district": "上杭县",
      "county": "",
      "town": "太拔乡",
      "village": "院田村",
      "province": "福建省",
      "batch": "第一批列入传统村落名录的村落名单",
      "batch_num": "1",
      "longitude": 116.41853,
      "latitude": 25.051702
    },
    {
      "full_address": "龙岩市新罗区适中镇中心村",
      "city": "龙岩市",
      "district": "新罗区",
      "county": "",
      "town": "适中镇",
      "village": "中心村",
      "province": "福建省",
      "batch": "第一批列入传统村落名录的村落名单",
      "batch_num": "1",
      "longitude": 117.035638,
      "latitude": 25.09968
    },
    {
      "full_address": "龙岩市永定县湖坑镇洪坑村",
      "city": "龙岩市",
      "district": "永定县",
      "county": "",
      "town": "湖坑镇",
      "village": "洪坑村",
      "province": "福建省",
      "batch": "第一批列入传统村落名录的村落名单",
      "batch_num": "1",
      "longitude": 116.732986,
      "latitude": 24.726532
    },
    {
      "full_address": "龙岩市漳平市双洋镇东洋村",
      "city": "龙岩市",
      "district": "漳平市",
      "county": "",
      "town": "双洋镇",
      "village": "东洋村",
      "province": "福建省",
      "batch": "第一批列入传统村落名录的村落名单",
      "batch_num": "1",
      "longitude": 117.4192,
      "latitude": 25.289597
    },
    {
      "full_address": "宁德市福安市溪潭镇廉村",
      "city": "宁德市",
      "district": "福安市",
      "county": "",
      "town": "溪潭镇",
      "village": "廉村",
      "province": "福建省",
      "batch": "第一批列入传统村落名录的村落名单",
      "batch_num": "1",
      "longitude": 119.645627,
      "latitude": 27.087632
    },
    {
      "full_address": "宁德市福鼎市磻溪镇仙蒲村",
      "city": "宁德市",
      "district": "福鼎市",
      "county": "",
      "town": "磻溪镇",
      "village": "仙蒲村",
      "province": "福建省",
      "batch": "第一批列入传统村落名录的村落名单",
      "batch_num": "1",
      "longitude": 120.216103,
      "latitude": 27.324437
    },
    {
      "full_address": "宁德市福鼎市店下镇巽城村",
      "city": "宁德市",
      "district": "福鼎市",
      "county": "",
      "town": "店下镇",
      "village": "巽城村",
      "province": "福建省",
      "batch": "第一批列入传统村落名录的村落名单",
      "batch_num": "1",
      "longitude": 120.217538,
      "latitude": 27.326488
    },
    {
      "full_address": "宁德市福鼎市管阳镇西昆村",
      "city": "宁德市",
      "district": "福鼎市",
      "county": "",
      "town": "管阳镇",
      "village": "西昆村",
      "province": "福建省",
      "batch": "第一批列入传统村落名录的村落名单",
      "batch_num": "1",
      "longitude": 120.217482,
      "latitude": 27.326925
    },
    {
      "full_address": "宁德市福鼎市太姥山镇潋城村",
      "city": "宁德市",
      "district": "福鼎市",
      "county": "",
      "town": "太姥山镇",
      "village": "潋城村",
      "province": "福建省",
      "batch": "第一批列入传统村落名录的村落名单",
      "batch_num": "1",
      "longitude": 120.218782,
      "latitude": 27.32319
    },
    {
      "full_address": "宁德市古田县吉巷乡长洋村",
      "city": "宁德市",
      "district": "古田县",
      "county": "",
      "town": "吉巷乡",
      "village": "长洋村",
      "province": "福建省",
      "batch": "第一批列入传统村落名录的村落名单",
      "batch_num": "1",
      "longitude": 118.744936,
      "latitude": 26.578464
    },
    {
      "full_address": "宁德市古田县平湖镇富达村",
      "city": "宁德市",
      "district": "古田县",
      "county": "",
      "town": "平湖镇",
      "village": "富达村",
      "province": "福建省",
      "batch": "第一批列入传统村落名录的村落名单",
      "batch_num": "1",
      "longitude": 118.744913,
      "latitude": 26.578078
    },
    {
      "full_address": "宁德市古田县杉洋镇杉洋村",
      "city": "宁德市",
      "district": "古田县",
      "county": "",
      "town": "杉洋镇",
      "village": "杉洋村",
      "province": "福建省",
      "batch": "第一批列入传统村落名录的村落名单",
      "batch_num": "1",
      "longitude": 118.746581,
      "latitude": 26.580225
    },
    {
      "full_address": "宁德市屏南县长桥镇柏源村",
      "city": "宁德市",
      "district": "屏南县",
      "county": "",
      "town": "长桥镇",
      "village": "柏源村",
      "province": "福建省",
      "batch": "第一批列入传统村落名录的村落名单",
      "batch_num": "1",
      "longitude": 118.985766,
      "latitude": 26.91019
    },
    {
      "full_address": "宁德市屏南县长桥镇长桥村",
      "city": "宁德市",
      "district": "屏南县",
      "county": "",
      "town": "长桥镇",
      "village": "长桥村",
      "province": "福建省",
      "batch": "第一批列入传统村落名录的村落名单",
      "batch_num": "1",
      "longitude": 118.984268,
      "latitude": 26.909213
    },
    {
      "full_address": "宁德市屏南县双溪镇双溪社区",
      "city": "宁德市",
      "district": "屏南县",
      "county": "",
      "town": "双溪镇",
      "village": "双溪社区",
      "province": "福建省",
      "batch": "第一批列入传统村落名录的村落名单",
      "batch_num": "1",
      "longitude": 118.984678,
      "latitude": 26.908101
    },
    {
      "full_address": "宁德市屏南县棠口乡棠口村",
      "city": "宁德市",
      "district": "屏南县",
      "county": "",
      "town": "棠口乡",
      "village": "棠口村",
      "province": "福建省",
      "batch": "第一批列入传统村落名录的村落名单",
      "batch_num": "1",
      "longitude": 118.984401,
      "latitude": 26.906449
    },
    {
      "full_address": "宁德市屏南县棠口乡漈头村",
      "city": "宁德市",
      "district": "屏南县",
      "county": "",
      "town": "棠口乡",
      "village": "漈头村",
      "province": "福建省",
      "batch": "第一批列入传统村落名录的村落名单",
      "batch_num": "1",
      "longitude": 118.988161,
      "latitude": 26.908752
    },
    {
      "full_address": "宁德市屏南县甘棠乡漈下村",
      "city": "宁德市",
      "district": "屏南县",
      "county": "",
      "town": "甘棠乡",
      "village": "漈下村",
      "province": "福建省",
      "batch": "第一批列入传统村落名录的村落名单",
      "batch_num": "1",
      "longitude": 118.984117,
      "latitude": 26.9104
    },
    {
      "full_address": "宁德市霞浦县溪南镇半月里村",
      "city": "宁德市",
      "district": "霞浦县",
      "county": "",
      "town": "溪南镇",
      "village": "半月里村",
      "province": "福建省",
      "batch": "第一批列入传统村落名录的村落名单",
      "batch_num": "1",
      "longitude": 120.006744,
      "latitude": 26.884099
    },
    {
      "full_address": "南昌市进贤县温圳镇杨溪村委李家村",
      "city": "南昌市",
      "district": "进贤县",
      "county": "",
      "town": "温圳镇",
      "village": "杨溪村委李家村",
      "province": "江西省",
      "batch": "第一批列入传统村落名录的村落名单",
      "batch_num": "1",
      "longitude": 116.242393,
      "latitude": 28.376772
    },
    {
      "full_address": "南昌市进贤县文港镇晏家村",
      "city": "南昌市",
      "district": "进贤县",
      "county": "",
      "town": "文港镇",
      "village": "晏家村",
      "province": "江西省",
      "batch": "第一批列入传统村落名录的村落名单",
      "batch_num": "1",
      "longitude": 116.242428,
      "latitude": 28.377518
    },
    {
      "full_address": "南昌市安义县石鼻镇罗田村",
      "city": "南昌市",
      "district": "安义县",
      "county": "",
      "town": "石鼻镇",
      "village": "罗田村",
      "province": "江西省",
      "batch": "第一批列入传统村落名录的村落名单",
      "batch_num": "1",
      "longitude": 121.237939,
      "latitude": 41.535654
    },
    {
      "full_address": "景德镇市浮梁县江村乡严台村",
      "city": "景德镇市",
      "district": "浮梁县",
      "county": "",
      "town": "江村乡",
      "village": "严台村",
      "province": "江西省",
      "batch": "第一批列入传统村落名录的村落名单",
      "batch_num": "1",
      "longitude": 117.215331,
      "latitude": 29.353157
    },
    {
      "full_address": "景德镇市浮梁县勒功乡沧溪村",
      "city": "景德镇市",
      "district": "浮梁县",
      "county": "",
      "town": "勒功乡",
      "village": "沧溪村",
      "province": "江西省",
      "batch": "第一批列入传统村落名录的村落名单",
      "batch_num": "1",
      "longitude": 117.213384,
      "latitude": 29.351479
    },
    {
      "full_address": "景德镇市浮梁县浮梁镇旧城村",
      "city": "景德镇市",
      "district": "浮梁县",
      "county": "",
      "town": "浮梁镇",
      "village": "旧城村",
      "province": "江西省",
      "batch": "第一批列入传统村落名录的村落名单",
      "batch_num": "1",
      "longitude": 117.217111,
      "latitude": 29.350344
    },
    {
      "full_address": "景德镇市浮梁县瑶里镇高岭村",
      "city": "景德镇市",
      "district": "浮梁县",
      "county": "",
      "town": "瑶里镇",
      "village": "高岭村",
      "province": "江西省",
      "batch": "第一批列入传统村落名录的村落名单",
      "batch_num": "1",
      "longitude": 117.21518,
      "latitude": 29.35487
    },
    {
      "full_address": "景德镇市浮梁县瑶里镇绕南村",
      "city": "景德镇市",
      "district": "浮梁县",
      "county": "",
      "town": "瑶里镇",
      "village": "绕南村",
      "province": "江西省",
      "batch": "第一批列入传统村落名录的村落名单",
      "batch_num": "1",
      "longitude": 117.214363,
      "latitude": 29.353173
    },
    {
      "full_address": "景德镇市浮梁县峙滩乡英溪村",
      "city": "景德镇市",
      "district": "浮梁县",
      "county": "",
      "town": "峙滩乡",
      "village": "英溪村",
      "province": "江西省",
      "batch": "第一批列入传统村落名录的村落名单",
      "batch_num": "1",
      "longitude": 117.21681,
      "latitude": 29.35451
    },
    {
      "full_address": "赣州市赣县白鹭乡白鹭村",
      "city": "赣州",
      "district": "市赣县",
      "county": "",
      "town": "白鹭乡",
      "village": "白鹭村",
      "province": "江西省",
      "batch": "第一批列入传统村落名录的村落名单",
      "batch_num": "1",
      "longitude": 115.022847,
      "latitude": 25.853352
    },
    {
      "full_address": "赣州市安远县镇岗乡老围村",
      "city": "赣州",
      "district": "市安远县",
      "county": "",
      "town": "镇岗乡",
      "village": "老围村",
      "province": "江西省",
      "batch": "第一批列入传统村落名录的村落名单",
      "batch_num": "1",
      "longitude": 115.395568,
      "latitude": 25.135311
    },
    {
      "full_address": "赣州市龙南县杨村镇杨村村燕翼围",
      "city": "赣州",
      "district": "市龙南县",
      "county": "",
      "town": "杨村镇",
      "village": "杨村村燕翼围",
      "province": "江西省",
      "batch": "第一批列入传统村落名录的村落名单",
      "batch_num": "1",
      "longitude": 114.803193,
      "latitude": 24.898726
    },
    {
      "full_address": "赣州市龙南县关西镇关西村",
      "city": "赣州",
      "district": "市龙南县",
      "county": "",
      "town": "关西镇",
      "village": "关西村",
      "province": "江西省",
      "batch": "第一批列入传统村落名录的村落名单",
      "batch_num": "1",
      "longitude": 114.805371,
      "latitude": 24.903464
    },
    {
      "full_address": "吉安市井冈山市鹅岭乡塘南村",
      "city": "吉安市",
      "district": "井冈山市",
      "county": "",
      "town": "鹅岭乡",
      "village": "塘南村",
      "province": "江西省",
      "batch": "第一批列入传统村落名录的村落名单",
      "batch_num": "1",
      "longitude": 114.290898,
      "latitude": 26.747584
    },
    {
      "full_address": "吉安市青原区富田镇陂下村",
      "city": "吉安市",
      "district": "青原区",
      "county": "",
      "town": "富田镇",
      "village": "陂下村",
      "province": "江西省",
      "batch": "第一批列入传统村落名录的村落名单",
      "batch_num": "1",
      "longitude": 115.013688,
      "latitude": 27.081355
    },
    {
      "full_address": "吉安市青原区富田镇横坑村",
      "city": "吉安市",
      "district": "青原区",
      "county": "",
      "town": "富田镇",
      "village": "横坑村",
      "province": "江西省",
      "batch": "第一批列入传统村落名录的村落名单",
      "batch_num": "1",
      "longitude": 115.015948,
      "latitude": 27.081266
    },
    {
      "full_address": "吉安市青原区文陂乡渼陂村",
      "city": "吉安市",
      "district": "青原区",
      "county": "",
      "town": "文陂乡",
      "village": "渼陂村",
      "province": "江西省",
      "batch": "第一批列入传统村落名录的村落名单",
      "batch_num": "1",
      "longitude": 115.016679,
      "latitude": 27.083891
    },
    {
      "full_address": "吉安市吉州区兴桥镇钓源村",
      "city": "吉安市",
      "district": "吉州区",
      "county": "",
      "town": "兴桥镇",
      "village": "钓源村",
      "province": "江西省",
      "batch": "第一批列入传统村落名录的村落名单",
      "batch_num": "1",
      "longitude": 114.994373,
      "latitude": 27.145875
    },
    {
      "full_address": "吉安市安福县金田乡柘溪村",
      "city": "吉安市",
      "district": "安福县",
      "county": "",
      "town": "金田乡",
      "village": "柘溪村",
      "province": "江西省",
      "batch": "第一批列入传统村落名录的村落名单",
      "batch_num": "1",
      "longitude": 114.622041,
      "latitude": 27.395022
    },
    {
      "full_address": "吉安市安福县洋门乡上街村",
      "city": "吉安市",
      "district": "安福县",
      "county": "",
      "town": "洋门乡",
      "village": "上街村",
      "province": "江西省",
      "batch": "第一批列入传统村落名录的村落名单",
      "batch_num": "1",
      "longitude": 114.61788,
      "latitude": 27.391584
    },
    {
      "full_address": "吉安市安福县洲湖镇塘边村",
      "city": "吉安市",
      "district": "安福县",
      "county": "",
      "town": "洲湖镇",
      "village": "塘边村",
      "province": "江西省",
      "batch": "第一批列入传统村落名录的村落名单",
      "batch_num": "1",
      "longitude": 114.6177,
      "latitude": 27.394312
    },
    {
      "full_address": "吉安市吉水县金滩镇燕坊村",
      "city": "吉安市",
      "district": "吉水县",
      "county": "",
      "town": "金滩镇",
      "village": "燕坊村",
      "province": "江西省",
      "batch": "第一批列入传统村落名录的村落名单",
      "batch_num": "1",
      "longitude": 115.136832,
      "latitude": 27.231379
    },
    {
      "full_address": "宜春市高安市新街镇贾家村",
      "city": "宜春市",
      "district": "高安市",
      "county": "",
      "town": "新街镇",
      "village": "贾家村",
      "province": "江西省",
      "batch": "第一批列入传统村落名录的村落名单",
      "batch_num": "1",
      "longitude": 115.367722,
      "latitude": 28.448858
    },
    {
      "full_address": "宜春市宜丰县天宝乡天宝村",
      "city": "宜春市",
      "district": "宜丰县",
      "county": "",
      "town": "天宝乡",
      "village": "天宝村",
      "province": "江西省",
      "batch": "第一批列入传统村落名录的村落名单",
      "batch_num": "1",
      "longitude": 116.659726,
      "latitude": 34.695869
    },
    {
      "full_address": "抚州市广昌县驿前镇驿前村",
      "city": "抚州",
      "district": "市广昌县",
      "county": "",
      "town": "驿前镇",
      "village": "驿前村",
      "province": "江西省",
      "batch": "第一批列入传统村落名录的村落名单",
      "batch_num": "1",
      "longitude": 116.334461,
      "latitude": 26.844555
    },
    {
      "full_address": "抚州市乐安县湖坪乡湖坪村",
      "city": "抚州",
      "district": "市乐安县",
      "county": "",
      "town": "湖坪乡",
      "village": "湖坪村",
      "province": "江西省",
      "batch": "第一批列入传统村落名录的村落名单",
      "batch_num": "1",
      "longitude": 115.833057,
      "latitude": 27.430228
    },
    {
      "full_address": "抚州市乐安县牛田镇流坑村",
      "city": "抚州",
      "district": "市乐安县",
      "county": "",
      "town": "牛田镇",
      "village": "流坑村",
      "province": "江西省",
      "batch": "第一批列入传统村落名录的村落名单",
      "batch_num": "1",
      "longitude": 115.831352,
      "latitude": 27.429057
    },
    {
      "full_address": "抚州市金溪县双塘镇竹桥村",
      "city": "抚州",
      "district": "市金溪县",
      "county": "",
      "town": "双塘镇",
      "village": "竹桥村",
      "province": "江西省",
      "batch": "第一批列入传统村落名录的村落名单",
      "batch_num": "1",
      "longitude": 116.756419,
      "latitude": 27.918412
    },
    {
      "full_address": "上饶市婺源县江湾镇江湾村",
      "city": "上饶市",
      "district": "婺源县",
      "county": "",
      "town": "江湾镇",
      "village": "江湾村",
      "province": "江西省",
      "batch": "第一批列入传统村落名录的村落名单",
      "batch_num": "1",
      "longitude": 117.862288,
      "latitude": 29.249931
    },
    {
      "full_address": "上饶市婺源县江湾镇汪口村",
      "city": "上饶市",
      "district": "婺源县",
      "county": "",
      "town": "江湾镇",
      "village": "汪口村",
      "province": "江西省",
      "batch": "第一批列入传统村落名录的村落名单",
      "batch_num": "1",
      "longitude": 117.861452,
      "latitude": 29.24935
    },
    {
      "full_address": "上饶市婺源县思口镇延村",
      "city": "上饶市",
      "district": "婺源县",
      "county": "",
      "town": "思口镇",
      "village": "延村",
      "province": "江西省",
      "batch": "第一批列入传统村落名录的村落名单",
      "batch_num": "1",
      "longitude": 117.859637,
      "latitude": 29.248445
    },
    {
      "full_address": "上饶市婺源县沱川乡理坑村",
      "city": "上饶市",
      "district": "婺源县",
      "county": "",
      "town": "沱川乡",
      "village": "理坑村",
      "province": "江西省",
      "batch": "第一批列入传统村落名录的村落名单",
      "batch_num": "1",
      "longitude": 117.863133,
      "latitude": 29.247252
    },
    {
      "full_address": "上饶市婺源县浙源乡虹关村",
      "city": "上饶市",
      "district": "婺源县",
      "county": "",
      "town": "浙源乡",
      "village": "虹关村",
      "province": "江西省",
      "batch": "第一批列入传统村落名录的村落名单",
      "batch_num": "1",
      "longitude": 117.863361,
      "latitude": 29.248326
    },
    {
      "full_address": "济南市章丘市官庄镇朱家峪村",
      "city": "济南市",
      "district": "章丘市",
      "county": "",
      "town": "官庄镇",
      "village": "朱家峪村",
      "province": "山东省",
      "batch": "第一批列入传统村落名录的村落名单",
      "batch_num": "1",
      "longitude": 117.525348,
      "latitude": 36.680455
    },
    {
      "full_address": "青岛市崂山区王哥庄街道青山渔村",
      "city": "青岛市",
      "district": "崂山区",
      "county": "",
      "town": "王哥庄街道",
      "village": "青山渔村",
      "province": "山东省",
      "batch": "第一批列入传统村落名录的村落名单",
      "batch_num": "1",
      "longitude": 120.469251,
      "latitude": 36.106452
    },
    {
      "full_address": "青岛市即墨市丰城镇雄崖所村",
      "city": "青岛市",
      "district": "即墨市",
      "county": "",
      "town": "丰城镇",
      "village": "雄崖所村",
      "province": "山东省",
      "batch": "第一批列入传统村落名录的村落名单",
      "batch_num": "1",
      "longitude": 120.445263,
      "latitude": 36.388167
    },
    {
      "full_address": "淄博市周村区王村镇李家疃村",
      "city": "淄博市",
      "district": "周村区",
      "county": "",
      "town": "王村镇",
      "village": "李家疃村",
      "province": "山东省",
      "batch": "第一批列入传统村落名录的村落名单",
      "batch_num": "1",
      "longitude": 117.872155,
      "latitude": 36.805242
    },
    {
      "full_address": "淄博市淄川区太河镇梦泉村",
      "city": "淄博市",
      "district": "淄川区",
      "county": "",
      "town": "太河镇",
      "village": "梦泉村",
      "province": "山东省",
      "batch": "第一批列入传统村落名录的村落名单",
      "batch_num": "1",
      "longitude": 117.965322,
      "latitude": 36.643657
    },
    {
      "full_address": "枣庄市山亭区山城街道兴隆庄村",
      "city": "枣庄市",
      "district": "山亭区",
      "county": "",
      "town": "山城街道",
      "village": "兴隆庄村",
      "province": "山东省",
      "batch": "第一批列入传统村落名录的村落名单",
      "batch_num": "1",
      "longitude": 117.463346,
      "latitude": 35.097902
    },
    {
      "full_address": "潍坊市寒亭区寒亭街道西杨家埠村",
      "city": "潍坊市",
      "district": "寒亭区",
      "county": "",
      "town": "寒亭街道",
      "village": "西杨家埠村",
      "province": "山东省",
      "batch": "第一批列入传统村落名录的村落名单",
      "batch_num": "1",
      "longitude": 119.211328,
      "latitude": 36.754311
    },
    {
      "full_address": "泰安市岱岳区大汶口镇山西街村",
      "city": "泰安市",
      "district": "岱岳区",
      "county": "",
      "town": "大汶口镇",
      "village": "山西街村",
      "province": "山东省",
      "batch": "第一批列入传统村落名录的村落名单",
      "batch_num": "1",
      "longitude": 117.043603,
      "latitude": 36.187265
    },
    {
      "full_address": "威海市荣成市宁津街道东楮岛村",
      "city": "威海市",
      "district": "荣成市",
      "county": "",
      "town": "宁津街道",
      "village": "东楮岛村",
      "province": "山东省",
      "batch": "第一批列入传统村落名录的村落名单",
      "batch_num": "1",
      "longitude": 122.487072,
      "latitude": 37.168108
    },
    {
      "full_address": "洛阳市孟津县小浪底镇乔庄村",
      "city": "洛阳市",
      "district": "孟津县",
      "county": "",
      "town": "小浪底镇",
      "village": "乔庄村",
      "province": "河南省",
      "batch": "第一批列入传统村落名录的村落名单",
      "batch_num": "1",
      "longitude": 112.447609,
      "latitude": 34.824619
    },
    {
      "full_address": "洛阳市汝阳县蔡店乡杜康村",
      "city": "洛阳市",
      "district": "汝阳县",
      "county": "",
      "town": "蔡店乡",
      "village": "杜康村",
      "province": "河南省",
      "batch": "第一批列入传统村落名录的村落名单",
      "batch_num": "1",
      "longitude": 112.473085,
      "latitude": 34.153908
    },
    {
      "full_address": "平顶山市宝丰县杨庄镇马街村",
      "city": "平顶山市",
      "district": "宝丰县",
      "county": "",
      "town": "杨庄镇",
      "village": "马街村",
      "province": "河南省",
      "batch": "第一批列入传统村落名录的村落名单",
      "batch_num": "1",
      "longitude": 116.656222,
      "latitude": 34.698202
    },
    {
      "full_address": "平顶山市郏县堂街镇临沣寨(村)",
      "city": "平顶山市",
      "district": "郏县",
      "county": "",
      "town": "堂街镇",
      "village": "临沣寨(村)",
      "province": "河南省",
      "batch": "第一批列入传统村落名录的村落名单",
      "batch_num": "1",
      "longitude": 113.213205,
      "latitude": 33.972531
    },
    {
      "full_address": "平顶山市郏县李口镇张店村",
      "city": "平顶山市",
      "district": "郏县",
      "county": "",
      "town": "李口镇",
      "village": "张店村",
      "province": "河南省",
      "batch": "第一批列入传统村落名录的村落名单",
      "batch_num": "1",
      "longitude": 113.213285,
      "latitude": 33.969299
    },
    {
      "full_address": "平顶山市郏县渣园乡渣园村",
      "city": "平顶山市",
      "district": "郏县",
      "county": "",
      "town": "渣园乡",
      "village": "渣园村",
      "province": "河南省",
      "batch": "第一批列入传统村落名录的村落名单",
      "batch_num": "1",
      "longitude": 113.213573,
      "latitude": 33.973076
    },
    {
      "full_address": "平顶山市郏县冢头镇西寨村",
      "city": "平顶山市",
      "district": "郏县",
      "county": "",
      "town": "冢头镇",
      "village": "西寨村",
      "province": "河南省",
      "batch": "第一批列入传统村落名录的村落名单",
      "batch_num": "1",
      "longitude": 113.214778,
      "latitude": 33.970387
    },
    {
      "full_address": "新乡市卫辉市狮豹头乡小店河村",
      "city": "新乡市",
      "district": "卫辉市",
      "county": "",
      "town": "狮豹头乡",
      "village": "小店河村",
      "province": "河南省",
      "batch": "第一批列入传统村落名录的村落名单",
      "batch_num": "1",
      "longitude": 114.065531,
      "latitude": 35.398266
    },
    {
      "full_address": "濮阳市清丰县双庙乡单拐村",
      "city": "濮阳市",
      "district": "清丰县",
      "county": "",
      "town": "双庙乡",
      "village": "单拐村",
      "province": "河南省",
      "batch": "第一批列入传统村落名录的村落名单",
      "batch_num": "1",
      "longitude": 116.657157,
      "latitude": 34.697309
    },
    {
      "full_address": "漯河市郾城区裴城镇裴城村",
      "city": "漯河市",
      "district": "郾城区",
      "county": "",
      "town": "裴城镇",
      "village": "裴城村",
      "province": "河南省",
      "batch": "第一批列入传统村落名录的村落名单",
      "batch_num": "1",
      "longitude": 113.599597,
      "latitude": 37.84572
    },
    {
      "full_address": "三门峡市陕县西张村镇庙上村",
      "city": "三门峡市",
      "district": "陕县",
      "county": "",
      "town": "西张村镇",
      "village": "庙上村",
      "province": "河南省",
      "batch": "第一批列入传统村落名录的村落名单",
      "batch_num": "1",
      "longitude": 108.314946,
      "latitude": 33.309129
    },
    {
      "full_address": "南阳市邓州市杏山旅游管理区杏山村",
      "city": "南阳市",
      "district": "邓州市",
      "county": "",
      "town": "",
      "village": "杏山旅游管理区杏山村",
      "province": "河南省",
      "batch": "第一批列入传统村落名录的村落名单",
      "batch_num": "1",
      "longitude": 112.086934,
      "latitude": 32.686925
    },
    {
      "full_address": "南阳市内乡县乍曲乡吴垭村",
      "city": "南阳市",
      "district": "内乡县",
      "county": "",
      "town": "乍曲乡",
      "village": "吴垭村",
      "province": "河南省",
      "batch": "第一批列入传统村落名录的村落名单",
      "batch_num": "1",
      "longitude": 111.849579,
      "latitude": 33.044939
    },
    {
      "full_address": "信阳市光山县文殊乡东岳村",
      "city": "信阳市",
      "district": "光山县",
      "county": "",
      "town": "文殊乡",
      "village": "东岳村",
      "province": "河南省",
      "batch": "第一批列入传统村落名录的村落名单",
      "batch_num": "1",
      "longitude": 114.919009,
      "latitude": 32.009854
    },
    {
      "full_address": "信阳市罗山县铁铺乡何家冲村",
      "city": "信阳市",
      "district": "罗山县",
      "county": "",
      "town": "铁铺乡",
      "village": "何家冲村",
      "province": "河南省",
      "batch": "第一批列入传统村落名录的村落名单",
      "batch_num": "1",
      "longitude": 114.511543,
      "latitude": 32.206402
    },
    {
      "full_address": "信阳市新县八里畈镇神留桥村丁李湾村",
      "city": "信阳市",
      "district": "新县",
      "county": "",
      "town": "八里畈镇",
      "village": "神留桥村丁李湾村",
      "province": "河南省",
      "batch": "第一批列入传统村落名录的村落名单",
      "batch_num": "1",
      "longitude": 115.937186,
      "latitude": 38.935216
    },
    {
      "full_address": "武汉市黄陂区木兰乡双泉村大余湾",
      "city": "武汉市",
      "district": "黄陂区",
      "county": "",
      "town": "木兰乡",
      "village": "双泉村大余湾",
      "province": "湖北省",
      "batch": "第一批列入传统村落名录的村落名单",
      "batch_num": "1",
      "longitude": 114.373255,
      "latitude": 30.882511
    },
    {
      "full_address": "武汉市黄陂区李家集街道泥人王村",
      "city": "武汉市",
      "district": "黄陂区",
      "county": "",
      "town": "李家集街道",
      "village": "泥人王村",
      "province": "湖北省",
      "batch": "第一批列入传统村落名录的村落名单",
      "batch_num": "1",
      "longitude": 114.375669,
      "latitude": 30.883902
    },
    {
      "full_address": "黄石市阳新县浮屠镇玉堍村",
      "city": "黄石市",
      "district": "阳新县",
      "county": "",
      "town": "浮屠镇",
      "village": "玉堍村",
      "province": "湖北省",
      "batch": "第一批列入传统村落名录的村落名单",
      "batch_num": "1",
      "longitude": 114.87865,
      "latitude": 31.644768
    },
    {
      "full_address": "黄石市阳新县排市镇下容村阚家塘",
      "city": "黄石市",
      "district": "阳新县",
      "county": "",
      "town": "排市镇",
      "village": "下容村阚家塘",
      "province": "湖北省",
      "batch": "第一批列入传统村落名录的村落名单",
      "batch_num": "1",
      "longitude": 114.876848,
      "latitude": 31.641526
    },
    {
      "full_address": "十堰市竹溪县中峰镇甘家岭村",
      "city": "十堰市",
      "district": "竹溪县",
      "county": "",
      "town": "中峰镇",
      "village": "甘家岭村",
      "province": "湖北省",
      "batch": "第一批列入传统村落名录的村落名单",
      "batch_num": "1",
      "longitude": 109.717029,
      "latitude": 32.319096
    },
    {
      "full_address": "宜昌市长阳土家族自治县高家堰镇向日岭村六组",
      "city": "宜昌市",
      "district": "长阳土家族自治县",
      "county": "",
      "town": "高家堰镇",
      "village": "向日岭村六组",
      "province": "湖北省",
      "batch": "第一批列入传统村落名录的村落名单",
      "batch_num": "1",
      "longitude": 111.205824,
      "latitude": 30.471244
    },
    {
      "full_address": "襄阳市枣阳市新市镇前湾村",
      "city": "襄阳市",
      "district": "枣阳市",
      "county": "",
      "town": "新市镇",
      "village": "前湾村",
      "province": "湖北省",
      "batch": "第一批列入传统村落名录的村落名单",
      "batch_num": "1",
      "longitude": 112.77522,
      "latitude": 32.129284
    },
    {
      "full_address": "荆门市钟祥市客店镇赵泉河村",
      "city": "荆门市",
      "district": "钟祥市",
      "county": "",
      "town": "客店镇",
      "village": "赵泉河村",
      "province": "湖北省",
      "batch": "第一批列入传统村落名录的村落名单",
      "batch_num": "1",
      "longitude": 112.586773,
      "latitude": 31.168599
    },
    {
      "full_address": "孝感市大悟县芳畈镇白果树湾村",
      "city": "孝感市",
      "district": "大悟县",
      "county": "",
      "town": "芳畈镇",
      "village": "白果树湾村",
      "province": "湖北省",
      "batch": "第一批列入传统村落名录的村落名单",
      "batch_num": "1",
      "longitude": 114.125675,
      "latitude": 31.562379
    },
    {
      "full_address": "孝感市大悟县宣化镇铁店村八字沟",
      "city": "孝感市",
      "district": "大悟县",
      "county": "",
      "town": "宣化镇",
      "village": "铁店村八字沟",
      "province": "湖北省",
      "batch": "第一批列入传统村落名录的村落名单",
      "batch_num": "1",
      "longitude": 114.127625,
      "latitude": 31.563451
    },
    {
      "full_address": "黄冈市红安县华家河镇祝楼村祝家楼垸",
      "city": "黄冈市",
      "district": "红安县",
      "county": "",
      "town": "华家河镇",
      "village": "祝楼村祝家楼垸",
      "province": "湖北省",
      "batch": "第一批列入传统村落名录的村落名单",
      "batch_num": "1",
      "longitude": 114.62025,
      "latitude": 31.285695
    },
    {
      "full_address": "黄冈市麻城市歧亭镇丫头山村",
      "city": "黄冈市",
      "district": "麻城市",
      "county": "",
      "town": "歧亭镇",
      "village": "丫头山村",
      "province": "湖北省",
      "batch": "第一批列入传统村落名录的村落名单",
      "batch_num": "1",
      "longitude": 115.005517,
      "latitude": 31.172563
    },
    {
      "full_address": "黄冈市武穴市梅川镇同心村李垅垸",
      "city": "黄冈市",
      "district": "武穴市",
      "county": "",
      "town": "梅川镇",
      "village": "同心村李垅垸",
      "province": "湖北省",
      "batch": "第一批列入传统村落名录的村落名单",
      "batch_num": "1",
      "longitude": 115.593916,
      "latitude": 29.870751
    },
    {
      "full_address": "咸宁市赤壁市赵李桥镇羊楼洞村",
      "city": "咸宁市",
      "district": "赤壁市",
      "county": "",
      "town": "赵李桥镇",
      "village": "羊楼洞村",
      "province": "湖北省",
      "batch": "第一批列入传统村落名录的村落名单",
      "batch_num": "1",
      "longitude": 113.899178,
      "latitude": 29.723967
    },
    {
      "full_address": "恩施土家族苗族自治州恩施市崔家坝镇滚龙坝村",
      "city": "恩施土家族苗族自治州",
      "district": "恩施市",
      "county": "",
      "town": "崔家坝镇",
      "village": "滚龙坝村",
      "province": "湖北省",
      "batch": "第一批列入传统村落名录的村落名单",
      "batch_num": "1",
      "longitude": 109.479027,
      "latitude": 30.294565
    },
    {
      "full_address": "恩施土家族苗族自治州恩施市白果乡金龙坝村",
      "city": "恩施土家族苗族自治州",
      "district": "恩施市",
      "county": "",
      "town": "白果乡",
      "village": "金龙坝村",
      "province": "湖北省",
      "batch": "第一批列入传统村落名录的村落名单",
      "batch_num": "1",
      "longitude": 109.477545,
      "latitude": 30.293547
    },
    {
      "full_address": "恩施土家族苗族自治州鹤峰县铁炉白族乡铁炉村",
      "city": "恩施土家族苗族自治州",
      "district": "鹤峰县",
      "county": "",
      "town": "铁炉白族乡",
      "village": "铁炉村",
      "province": "湖北省",
      "batch": "第一批列入传统村落名录的村落名单",
      "batch_num": "1",
      "longitude": 110.03307,
      "latitude": 29.88913
    },
    {
      "full_address": "恩施土家族苗族自治州鹤峰县铁炉白族乡细杉村",
      "city": "恩施土家族苗族自治州",
      "district": "鹤峰县",
      "county": "",
      "town": "铁炉白族乡",
      "village": "细杉村",
      "province": "湖北省",
      "batch": "第一批列入传统村落名录的村落名单",
      "batch_num": "1",
      "longitude": 110.032207,
      "latitude": 29.889145
    },
    {
      "full_address": "恩施土家族苗族自治州鹤峰县五里乡五里村",
      "city": "恩施土家族苗族自治州",
      "district": "鹤峰县",
      "county": "",
      "town": "五里乡",
      "village": "五里村",
      "province": "湖北省",
      "batch": "第一批列入传统村落名录的村落名单",
      "batch_num": "1",
      "longitude": 110.036406,
      "latitude": 29.890303
    },
    {
      "full_address": "恩施土家族苗族自治州鹤峰县中营乡三家台蒙古族村",
      "city": "恩施土家族苗族自治州",
      "district": "鹤峰县",
      "county": "",
      "town": "中营乡",
      "village": "三家台蒙古族村",
      "province": "湖北省",
      "batch": "第一批列入传统村落名录的村落名单",
      "batch_num": "1",
      "longitude": 110.035919,
      "latitude": 29.888715
    },
    {
      "full_address": "恩施土家族苗族自治州来凤县百福司镇新安村",
      "city": "恩施土家族苗族自治州",
      "district": "来凤县",
      "county": "",
      "town": "百福司镇",
      "village": "新安村",
      "province": "湖北省",
      "batch": "第一批列入传统村落名录的村落名单",
      "batch_num": "1",
      "longitude": 109.408194,
      "latitude": 29.491381
    },
    {
      "full_address": "恩施土家族苗族自治州来凤县大河镇冷水溪村",
      "city": "恩施土家族苗族自治州",
      "district": "来凤县",
      "county": "",
      "town": "大河镇",
      "village": "冷水溪村",
      "province": "湖北省",
      "batch": "第一批列入传统村落名录的村落名单",
      "batch_num": "1",
      "longitude": 109.405366,
      "latitude": 29.490994
    },
    {
      "full_address": "恩施土家族苗族自治州利川市凉雾乡海洋村",
      "city": "恩施土家族苗族自治州",
      "district": "利川市",
      "county": "",
      "town": "凉雾乡",
      "village": "海洋村",
      "province": "湖北省",
      "batch": "第一批列入传统村落名录的村落名单",
      "batch_num": "1",
      "longitude": 108.933959,
      "latitude": 30.292054
    },
    {
      "full_address": "恩施土家族苗族自治州咸丰县大路坝区蛇盘溪村",
      "city": "恩施土家族苗族自治州",
      "district": "咸丰县",
      "county": "",
      "town": "",
      "village": "大路坝区蛇盘溪村",
      "province": "湖北省",
      "batch": "第一批列入传统村落名录的村落名单",
      "batch_num": "1",
      "longitude": 116.656689,
      "latitude": 34.698506
    },
    {
      "full_address": "恩施土家族苗族自治州咸丰县甲马池镇马家沟村王母洞",
      "city": "恩施土家族苗族自治州",
      "district": "咸丰县",
      "county": "",
      "town": "甲马池镇",
      "village": "马家沟村王母洞",
      "province": "湖北省",
      "batch": "第一批列入传统村落名录的村落名单",
      "batch_num": "1",
      "longitude": 116.657889,
      "latitude": 34.698952
    },
    {
      "full_address": "恩施土家族苗族自治州咸丰县清坪镇中寨坝村郑家坝",
      "city": "恩施土家族苗族自治州",
      "district": "咸丰县",
      "county": "",
      "town": "清坪镇",
      "village": "中寨坝村郑家坝",
      "province": "湖北省",
      "batch": "第一批列入传统村落名录的村落名单",
      "batch_num": "1",
      "longitude": 116.657929,
      "latitude": 34.696111
    },
    {
      "full_address": "恩施土家族苗族自治州宣恩县椒园镇庆阳坝村",
      "city": "恩施土家族苗族自治州",
      "district": "宣恩县",
      "county": "",
      "town": "椒园镇",
      "village": "庆阳坝村",
      "province": "湖北省",
      "batch": "第一批列入传统村落名录的村落名单",
      "batch_num": "1",
      "longitude": 109.491679,
      "latitude": 29.985159
    },
    {
      "full_address": "恩施土家族苗族自治州宣恩县沙道沟镇两河口村",
      "city": "恩施土家族苗族自治州",
      "district": "宣恩县",
      "county": "",
      "town": "沙道沟镇",
      "village": "两河口村",
      "province": "湖北省",
      "batch": "第一批列入传统村落名录的村落名单",
      "batch_num": "1",
      "longitude": 109.489484,
      "latitude": 29.988848
    },
    {
      "full_address": "衡阳市常宁市庙前镇中田村",
      "city": "衡阳市",
      "district": "常宁市",
      "county": "",
      "town": "庙前镇",
      "village": "中田村",
      "province": "湖南省",
      "batch": "第一批列入传统村落名录的村落名单",
      "batch_num": "1",
      "longitude": 112.401354,
      "latitude": 26.420657
    },
    {
      "full_address": "邵阳市隆回县虎形山瑶族乡崇木凼村",
      "city": "邵阳市",
      "district": "隆回县",
      "county": "",
      "town": "虎形山瑶族乡",
      "village": "崇木凼村",
      "province": "湖南省",
      "batch": "第一批列入传统村落名录的村落名单",
      "batch_num": "1",
      "longitude": 111.031332,
      "latitude": 27.111774
    },
    {
      "full_address": "岳阳市岳阳县张谷英镇张谷英村",
      "city": "岳阳市",
      "district": "岳阳县",
      "county": "",
      "town": "张谷英镇",
      "village": "张谷英村",
      "province": "湖南省",
      "batch": "第一批列入传统村落名录的村落名单",
      "batch_num": "1",
      "longitude": 113.117287,
      "latitude": 29.145915
    },
    {
      "full_address": "张家界市永定区王家坪乡石堰坪村",
      "city": "张家界市",
      "district": "永定区",
      "county": "",
      "town": "王家坪乡",
      "village": "石堰坪村",
      "province": "湖南省",
      "batch": "第一批列入传统村落名录的村落名单",
      "batch_num": "1",
      "longitude": 110.535621,
      "latitude": 29.117994
    },
    {
      "full_address": "益阳市安化县东坪镇黄沙坪老街",
      "city": "益阳市",
      "district": "安化县",
      "county": "",
      "town": "东坪镇",
      "village": "黄沙坪老街",
      "province": "湖南省",
      "batch": "第一批列入传统村落名录的村落名单",
      "batch_num": "1",
      "longitude": 111.211787,
      "latitude": 28.375379
    },
    {
      "full_address": "益阳市安化县马路镇马路溪村",
      "city": "益阳市",
      "district": "安化县",
      "county": "",
      "town": "马路镇",
      "village": "马路溪村",
      "province": "湖南省",
      "batch": "第一批列入传统村落名录的村落名单",
      "batch_num": "1",
      "longitude": 111.213341,
      "latitude": 28.371784
    },
    {
      "full_address": "郴州市永兴县高亭乡板梁村",
      "city": "郴州",
      "district": "市永兴县",
      "county": "",
      "town": "高亭乡",
      "village": "板梁村",
      "province": "湖南省",
      "batch": "第一批列入传统村落名录的村落名单",
      "batch_num": "1",
      "longitude": 111.129142,
      "latitude": 38.46225
    },
    {
      "full_address": "永州市零陵区富家桥镇干岩头村",
      "city": "永州",
      "district": "市零陵区",
      "county": "",
      "town": "富家桥镇",
      "village": "干岩头村",
      "province": "湖南省",
      "batch": "第一批列入传统村落名录的村落名单",
      "batch_num": "1",
      "longitude": 111.630148,
      "latitude": 26.222076
    },
    {
      "full_address": "永州市江永县夏层铺镇上甘棠村",
      "city": "永州",
      "district": "市江永县",
      "county": "",
      "town": "夏层铺镇",
      "village": "上甘棠村",
      "province": "湖南省",
      "batch": "第一批列入传统村落名录的村落名单",
      "batch_num": "1",
      "longitude": 111.341233,
      "latitude": 25.27289
    },
    {
      "full_address": "永州市祁阳县潘市镇龙溪村",
      "city": "永州",
      "district": "市祁阳县",
      "county": "",
      "town": "潘市镇",
      "village": "龙溪村",
      "province": "湖南省",
      "batch": "第一批列入传统村落名录的村落名单",
      "batch_num": "1",
      "longitude": 111.842437,
      "latitude": 26.578988
    },
    {
      "full_address": "永州市双牌县理家坪乡坦田村",
      "city": "永州",
      "district": "市双牌县",
      "county": "",
      "town": "理家坪乡",
      "village": "坦田村",
      "province": "湖南省",
      "batch": "第一批列入传统村落名录的村落名单",
      "batch_num": "1",
      "longitude": 111.661562,
      "latitude": 25.960294
    },
    {
      "full_address": "怀化市辰溪县上蒲溪瑶族乡五宝田村",
      "city": "怀化市",
      "district": "辰溪县",
      "county": "",
      "town": "上蒲溪瑶族乡",
      "village": "五宝田村",
      "province": "湖南省",
      "batch": "第一批列入传统村落名录的村落名单",
      "batch_num": "1",
      "longitude": 110.185646,
      "latitude": 28.005567
    },
    {
      "full_address": "怀化市会同县高椅乡高椅村",
      "city": "怀化市",
      "district": "会同县",
      "county": "",
      "town": "高椅乡",
      "village": "高椅村",
      "province": "湖南省",
      "batch": "第一批列入传统村落名录的村落名单",
      "batch_num": "1",
      "longitude": 109.733223,
      "latitude": 26.887384
    },
    {
      "full_address": "湘西土家族苗族自治州保靖县夯沙乡夯沙村",
      "city": "湘西土家族苗族自治州",
      "district": "保靖县",
      "county": "",
      "town": "夯沙乡",
      "village": "夯沙村",
      "province": "湖南省",
      "batch": "第一批列入传统村落名录的村落名单",
      "batch_num": "1",
      "longitude": 109.661744,
      "latitude": 28.700335
    },
    {
      "full_address": "湘西土家族苗族自治州保靖县碗米坡镇首八峒村",
      "city": "湘西土家族苗族自治州",
      "district": "保靖县",
      "county": "",
      "town": "碗米坡镇",
      "village": "首八峒村",
      "province": "湖南省",
      "batch": "第一批列入传统村落名录的村落名单",
      "batch_num": "1",
      "longitude": 109.659887,
      "latitude": 28.697821
    },
    {
      "full_address": "湘西土家族苗族自治州凤凰县阿拉营镇舒家塘村",
      "city": "湘西土家族苗族自治州",
      "district": "凤凰县",
      "county": "",
      "town": "阿拉营镇",
      "village": "舒家塘村",
      "province": "湖南省",
      "batch": "第一批列入传统村落名录的村落名单",
      "batch_num": "1",
      "longitude": 109.583135,
      "latitude": 27.95799
    },
    {
      "full_address": "湘西土家族苗族自治州凤凰县都里乡拉毫村",
      "city": "湘西土家族苗族自治州",
      "district": "凤凰县",
      "county": "",
      "town": "都里乡",
      "village": "拉毫村",
      "province": "湖南省",
      "batch": "第一批列入传统村落名录的村落名单",
      "batch_num": "1",
      "longitude": 109.582475,
      "latitude": 27.957252
    },
    {
      "full_address": "湘西土家族苗族自治州凤凰县麻冲乡老洞村",
      "city": "湘西土家族苗族自治州",
      "district": "凤凰县",
      "county": "",
      "town": "麻冲乡",
      "village": "老洞村",
      "province": "湖南省",
      "batch": "第一批列入传统村落名录的村落名单",
      "batch_num": "1",
      "longitude": 109.579599,
      "latitude": 27.95555
    },
    {
      "full_address": "湘西土家族苗族自治州古丈县高峰乡岩排溪村",
      "city": "湘西土家族苗族自治州",
      "district": "古丈县",
      "county": "",
      "town": "高峰乡",
      "village": "岩排溪村",
      "province": "湖南省",
      "batch": "第一批列入传统村落名录的村落名单",
      "batch_num": "1",
      "longitude": 109.951138,
      "latitude": 28.616886
    },
    {
      "full_address": "湘西土家族苗族自治州古丈县红石林镇老司岩村",
      "city": "湘西土家族苗族自治州",
      "district": "古丈县",
      "county": "",
      "town": "红石林镇",
      "village": "老司岩村",
      "province": "湖南省",
      "batch": "第一批列入传统村落名录的村落名单",
      "batch_num": "1",
      "longitude": 109.948862,
      "latitude": 28.61513
    },