{
  "villages": [
    {
      "full_address": "房山区南窖乡水峪村",
      "city": "",
      "district": "房山区",
      "county": "",
      "town": "南窖乡",
      "village": "水峪村",
      "province": "北京市",
      "batch": "第一批列入传统村落名录的村落名单",
      "batch_num": "1",
      "longitude": 115.828592,
      "latitude": 39.758764,
      "geocode_source": "amap_api",
      "geocode_level": "村庄"
    },
    {
      "full_address": "门头沟区龙泉镇琉璃渠村",
      "city": "",
      "district": "门头沟区",
      "county": "",
      "town": "龙泉镇",
      "village": "琉璃渠村",
      "province": "北京市",
      "batch": "第一批列入传统村落名录的村落名单",
      "batch_num": "1",
      "longitude": 116.086696,
      "latitude": 39.969897,
      "geocode_source": "amap_api",
      "geocode_level": "村庄"
    },
    {
      "full_address": "门头沟区龙泉镇三家店村",
      "city": "",
      "district": "门头沟区",
      "county": "",
      "town": "龙泉镇",
      "village": "三家店村",
      "province": "北京市",
      "batch": "第一批列入传统村落名录的村落名单",
      "batch_num": "1",
      "longitude": 116.109973,
      "latitude": 39.962571,
      "geocode_source": "amap_api",
      "geocode_level": "村庄"
    },
    {
      "full_address": "门头沟区斋堂镇爨底下村",
      "city": "",
      "district": "门头沟区",
      "county": "",
      "town": "斋堂镇",
      "village": "爨底下村",
      "province": "北京市",
      "batch": "第一批列入传统村落名录的村落名单",
      "batch_num": "1",
      "longitude": 115.646158,
      "latitude": 39.996811,
      "geocode_source": "amap_api",
      "geocode_level": "村庄"
    },
    {
      "full_address": "门头沟区斋堂镇黄岭西村",
      "city": "",
      "district": "门头沟区",
      "county": "",
      "town": "斋堂镇",
      "village": "黄岭西村",
      "province": "北京市",
      "batch": "第一批列入传统村落名录的村落名单",
      "batch_num": "1",
      "longitude": 115.645916,
      "latitude": 39.971467,
      "geocode_source": "amap_api",
      "geocode_level": "村庄"
    },
    {
      "full_address": "门头沟区斋堂镇灵水村",
      "city": "",
      "district": "门头沟区",
      "county": "",
      "town": "斋堂镇",
      "village": "灵水村",
      "province": "北京市",
      "batch": "第一批列入传统村落名录的村落名单",
      "batch_num": "1",
      "longitude": 115.734106,
      "latitude": 40.002486,
      "geocode_source": "amap_api",
      "geocode_level": "村庄"
    },
    {
      "full_address": "门头沟区雁翅镇苇子水村",
      "city": "",
      "district": "门头沟区",
      "county": "",
      "town": "雁翅镇",
      "village": "苇子水村",
      "province": "北京市",
      "batch": "第一批列入传统村落名录的村落名单",
      "batch_num": "1",
      "longitude": 115.899895,
      "latitude": 40.064366,
      "geocode_source": "amap_api",
      "geocode_level": "村庄"
    },
    {
      "full_address": "顺义区龙湾屯镇焦庄户村",
      "city": "",
      "district": "顺义区",
      "county": "",
      "town": "龙湾屯镇",
      "village": "焦庄户村",
      "province": "北京市",
      "batch": "第一批列入传统村落名录的村落名单",
      "batch_num": "1",
      "longitude": 116.872111,
      "latitude": 40.233892,
      "geocode_source": "amap_api",
      "geocode_level": "村庄"
    },
    {
      "full_address": "延庆县八达岭镇岔道村",
      "city": "",
      "district": "延庆县",
      "county": "",
      "town": "八达岭镇",
      "village": "岔道村",
      "province": "北京市",
      "batch": "第一批列入传统村落名录的村落名单",
      "batch_num": "1",
      "longitude": 115.994633,
      "latitude": 40.364894,
      "geocode_source": "amap_api",
      "geocode_level": "村庄"
    },
    {
      "full_address": "蓟县渔阳镇西井峪村",
      "city": "",
      "district": "蓟县",
      "county": "",
      "town": "渔阳镇",
      "village": "西井峪村",
      "province": "天津市",
      "batch": "第一批列入传统村落名录的村落名单",
      "batch_num": "1",
      "longitude": 117.415616,
      "latitude": 40.07223,
      "geocode_source": "amap_api",
      "geocode_level": "村庄"
    },
    {
      "full_address": "石家庄市井陉县南障城镇大梁江村",
      "city": "石家庄市",
      "district": "井陉县",
      "county": "",
      "town": "南障城镇",
      "village": "大梁江村",
      "province": "河北省",
      "batch": "第一批列入传统村落名录的村落名单",
      "batch_num": "1",
      "longitude": 113.973988,
      "latitude": 37.909803,
      "geocode_source": "amap_api",
      "geocode_level": "村庄"
    },
    {
      "full_address": "石家庄市井陉县南障城镇吕家村",
      "city": "石家庄市",
      "district": "井陉县",
      "county": "",
      "town": "南障城镇",
      "village": "吕家村",
      "province": "河北省",
      "batch": "第一批列入传统村落名录的村落名单",
      "batch_num": "1",
      "longitude": 114.003915,
      "latitude": 37.901023,
      "geocode_source": "amap_api",
      "geocode_level": "村庄"
    },
    {
      "full_address": "石家庄市井陉县于家乡于家村",
      "city": "石家庄市",
      "district": "井陉县",
      "county": "",
      "town": "于家乡",
      "village": "于家村",
      "province": "河北省",
      "batch": "第一批列入传统村落名录的村落名单",
      "batch_num": "1",
      "longitude": 114.040768,
      "latitude": 37.942138,
      "geocode_source": "amap_api",
      "geocode_level": "村庄"
    },
    {
      "full_address": "石家庄市井陉县南峪镇地都村",
      "city": "石家庄市",
      "district": "井陉县",
      "county": "",
      "town": "南峪镇",
      "village": "地都村",
      "province": "河北省",
      "batch": "第一批列入传统村落名录的村落名单",
      "batch_num": "1",
      "longitude": 113.913956,
      "latitude": 37.972436,
      "geocode_source": "amap_api",
      "geocode_level": "村庄"
    },
    {
      "full_address": "石家庄市井陉县天长镇梁家村",
      "city": "石家庄市",
      "district": "井陉县",
      "county": "",
      "town": "天长镇",
      "village": "梁家村",
      "province": "河北省",
      "batch": "第一批列入传统村落名录的村落名单",
      "batch_num": "1",
      "longitude": 114.00471,
      "latitude": 37.964135,
      "geocode_source": "amap_api",
      "geocode_level": "村庄"
    },
    {
      "full_address": "石家庄市井陉县天长镇宋古城村",
      "city": "石家庄市",
      "district": "井陉县",
      "county": "",
      "town": "天长镇",
      "village": "宋古城村",
      "province": "河北省",
      "batch": "第一批列入传统村落名录的村落名单",
      "batch_num": "1",
      "longitude": 114.02878,
      "latitude": 38.003467,
      "geocode_source": "amap_api",
      "geocode_level": "村庄"
    },
    {
      "full_address": "石家庄市井陉县天长镇小龙窝村",
      "city": "石家庄市",
      "district": "井陉县",
      "county": "",
      "town": "天长镇",
      "village": "小龙窝村",
      "province": "河北省",
      "batch": "第一批列入传统村落名录的村落名单",
      "batch_num": "1",
      "longitude": 113.970731,
      "latitude": 37.953999,
      "geocode_source": "amap_api",
      "geocode_level": "村庄"
    },
    {
      "full_address": "石家庄市鹿泉市白鹿泉乡水峪村",
      "city": "石家庄市",
      "district": "鹿泉市",
      "county": "",
      "town": "白鹿泉乡",
      "village": "水峪村",
      "province": "河北省",
      "batch": "第一批列入传统村落名录的村落名单",
      "batch_num": "1",
      "longitude": 114.280145,
      "latitude": 38.013058,
      "geocode_source": "amap_api",
      "geocode_level": "村庄"
    },
    {
      "full_address": "邯郸市磁县贾壁乡北贾壁村",
      "city": "邯郸市",
      "district": "磁县",
      "county": "",
      "town": "贾壁乡",
      "village": "北贾壁村",
      "province": "河北省",
      "batch": "第一批列入传统村落名录的村落名单",
      "batch_num": "1",
      "longitude": 114.059445,
      "latitude": 36.458744,
      "geocode_source": "amap_api",
      "geocode_level": "村庄"
    },
    {
      "full_address": "邯郸市磁县陶泉乡北岔口村",
      "city": "邯郸市",
      "district": "磁县",
      "county": "",
      "town": "陶泉乡",
      "village": "北岔口村",
      "province": "河北省",
      "batch": "第一批列入传统村落名录的村落名单",
      "batch_num": "1",
      "longitude": 113.973902,
      "latitude": 36.436571,
      "geocode_source": "amap_api",
      "geocode_level": "村庄"
    },
    {
      "full_address": "邯郸市磁县陶泉乡花驼村",
      "city": "邯郸市",
      "district": "磁县",
      "county": "",
      "town": "陶泉乡",
      "village": "花驼村",
      "province": "河北省",
      "batch": "第一批列入传统村落名录的村落名单",
      "batch_num": "1",
      "longitude": 113.96086,
      "latitude": 36.419844,
      "geocode_source": "amap_api",
      "geocode_level": "村庄"
    },
    {
      "full_address": "邯郸市磁县陶泉乡南王庄村",
      "city": "邯郸市",
      "district": "磁县",
      "county": "",
      "town": "陶泉乡",
      "village": "南王庄村",
      "province": "河北省",
      "batch": "第一批列入传统村落名录的村落名单",
      "batch_num": "1",
      "longitude": 113.943156,
      "latitude": 36.38768,
      "geocode_source": "amap_api",
      "geocode_level": "村庄"
    },
    {
      "full_address": "邯郸市涉县固新镇固新村",
      "city": "邯郸市",
      "district": "涉县",
      "county": "",
      "town": "固新镇",
      "village": "固新村",
      "province": "河北省",
      "batch": "第一批列入传统村落名录的村落名单",
      "batch_num": "1",
      "longitude": 113.750376,
      "latitude": 36.471067,
      "geocode_source": "amap_api",
      "geocode_level": "村庄"
    },
    {
      "full_address": "邯郸市涉县偏城镇偏城村",
      "city": "邯郸市",
      "district": "涉县",
      "county": "",
      "town": "偏城镇",
      "village": "偏城村",
      "province": "河北省",
      "batch": "第一批列入传统村落名录的村落名单",
      "batch_num": "1",
      "longitude": 113.66801,
      "latitude": 36.74293,
      "geocode_source": "amap_api",
      "geocode_level": "村庄"
    },
    {
      "full_address": "邯郸市涉县关防乡宋家村",
      "city": "邯郸市",
      "district": "涉县",
      "county": "",
      "town": "关防乡",
      "village": "宋家村",
      "province": "河北省",
      "batch": "第一批列入传统村落名录的村落名单",
      "batch_num": "1",
      "longitude": 113.938339,
      "latitude": 36.488947,
      "geocode_source": "amap_api",
      "geocode_level": "村庄"
    },
    {
      "full_address": "邯郸市涉县河南店镇赤岸村",
      "city": "邯郸市",
      "district": "涉县",
      "county": "",
      "town": "河南店镇",
      "village": "赤岸村",
      "province": "河北省",
      "batch": "第一批列入传统村落名录的村落名单",
      "batch_num": "1",
      "longitude": 113.636942,
      "latitude": 36.587751,
      "geocode_source": "amap_api",
      "geocode_level": "村庄"
    },
    {
      "full_address": "邯郸市涉县井店镇王金庄村",
      "city": "邯郸市",
      "district": "涉县",
      "county": "",
      "town": "井店镇",
      "village": "王金庄村",
      "province": "河北省",
      "batch": "第一批列入传统村落名录的村落名单",
      "batch_num": "1",
      "longitude": 113.83365,
      "latitude": 36.589856,
      "geocode_source": "amap_api",
      "geocode_level": "村庄"
    },
    {
      "full_address": "邯郸市武安市伯延镇伯延村",
      "city": "邯郸市",
      "district": "武安市",
      "county": "",
      "town": "伯延镇",
      "village": "伯延村",
      "province": "河北省",
      "batch": "第一批列入传统村落名录的村落名单",
      "batch_num": "1",
      "longitude": 114.17799,
      "latitude": 36.617174,
      "geocode_source": "amap_api",
      "geocode_level": "公交地铁站点"
    },
    {
      "full_address": "邯郸市武安市冶陶镇安子岭村",
      "city": "邯郸市",
      "district": "武安市",
      "county": "",
      "town": "冶陶镇",
      "village": "安子岭村",
      "province": "河北省",
      "batch": "第一批列入传统村落名录的村落名单",
      "batch_num": "1",
      "longitude": 113.922803,
      "latitude": 36.603464,
      "geocode_source": "amap_api",
      "geocode_level": "村庄"
    },
    {
      "full_address": "邯郸市武安市冶陶镇固义村",
      "city": "邯郸市",
      "district": "武安市",
      "county": "",
      "town": "冶陶镇",
      "village": "固义村",
      "province": "河北省",
      "batch": "第一批列入传统村落名录的村落名单",
      "batch_num": "1",
      "longitude": 113.959471,
      "latitude": 36.627525,
      "geocode_source": "amap_api",
      "geocode_level": "村庄"
    },
    {
      "full_address": "邯郸市武安市冶陶镇冶陶村",
      "city": "邯郸市",
      "district": "武安市",
      "county": "",
      "town": "冶陶镇",
      "village": "冶陶村",
      "province": "河北省",
      "batch": "第一批列入传统村落名录的村落名单",
      "batch_num": "1",
      "longitude": 113.937776,
      "latitude": 36.640426,
      "geocode_source": "amap_api",
      "geocode_level": "村庄"
    },
    {
      "full_address": "邯郸市武安市邑城镇白府村",
      "city": "邯郸市",
      "district": "武安市",
      "county": "",
      "town": "邑城镇",
      "village": "白府村",
      "province": "河北省",
      "batch": "第一批列入传统村落名录的村落名单",
      "batch_num": "1",
      "longitude": 114.253773,
      "latitude": 36.824694,
      "geocode_source": "amap_api",
      "geocode_level": "村庄"
    },
    {
      "full_address": "邢台市内丘县南赛乡神头村",
      "city": "邢台市",
      "district": "内丘县",
      "county": "",
      "town": "南赛乡",
      "village": "神头村",
      "province": "河北省",
      "batch": "第一批列入传统村落名录的村落名单",
      "batch_num": "1",
      "longitude": 114.275422,
      "latitude": 37.308608,
      "geocode_source": "amap_api",
      "geocode_level": "村庄"
    },
    {
      "full_address": "邢台市邢台县路罗镇英谈村",
      "city": "邢台市",
      "district": "邢台县",
      "county": "",
      "town": "路罗镇",
      "village": "英谈村",
      "province": "河北省",
      "batch": "第一批列入传统村落名录的村落名单",
      "batch_num": "1",
      "longitude": 113.848072,
      "latitude": 37.110823,
      "geocode_source": "amap_api",
      "geocode_level": "村庄"
    },
    {
      "full_address": "保定市清苑县冉庄镇冉庄村",
      "city": "保定市",
      "district": "清苑县",
      "county": "",
      "town": "冉庄镇",
      "village": "冉庄村",
      "province": "河北省",
      "batch": "第一批列入传统村落名录的村落名单",
      "batch_num": "1",
      "longitude": 115.37213,
      "latitude": 38.672601,
      "geocode_source": "amap_api",
      "geocode_level": "村庄"
    },
    {
      "full_address": "张家口市怀来县鸡鸣驿乡鸡鸣驿村",
      "city": "张家口市",
      "district": "怀来县",
      "county": "",
      "town": "鸡鸣驿乡",
      "village": "鸡鸣驿村",
      "province": "河北省",
      "batch": "第一批列入传统村落名录的村落名单",
      "batch_num": "1",
      "longitude": 115.314014,
      "latitude": 40.455659,
      "geocode_source": "amap_api",
      "geocode_level": "村庄"
    },
    {
      "full_address": "张家口市蔚县南留庄镇南留庄村",
      "city": "张家口市",
      "district": "蔚县",
      "county": "",
      "town": "南留庄镇",
      "village": "南留庄村",
      "province": "河北省",
      "batch": "第一批列入传统村落名录的村落名单",
      "batch_num": "1",
      "longitude": 114.454832,
      "latitude": 39.864273,
      "geocode_source": "amap_api",
      "geocode_level": "村庄"
    },
    {
      "full_address": "张家口市蔚县涌泉庄乡北方城村",
      "city": "张家口市",
      "district": "蔚县",
      "county": "",
      "town": "涌泉庄乡",
      "village": "北方城村",
      "province": "河北省",
      "batch": "第一批列入传统村落名录的村落名单",
      "batch_num": "1",
      "longitude": 114.52019,
      "latitude": 39.902114,
      "geocode_source": "amap_api",
      "geocode_level": "村庄"
    },
    {
      "full_address": "张家口市蔚县暖泉镇北官堡村",
      "city": "张家口市",
      "district": "蔚县",
      "county": "",
      "town": "暖泉镇",
      "village": "北官堡村",
      "province": "河北省",
      "batch": "第一批列入传统村落名录的村落名单",
      "batch_num": "1",
      "longitude": 114.446104,
      "latitude": 39.805401,
      "geocode_source": "amap_api",
      "geocode_level": "村庄"
    },
    {
      "full_address": "张家口市蔚县暖泉镇西古堡村",
      "city": "张家口市",
      "district": "蔚县",
      "county": "",
      "town": "暖泉镇",
      "village": "西古堡村",
      "province": "河北省",
      "batch": "第一批列入传统村落名录的村落名单",
      "batch_num": "1",
      "longitude": 114.432928,
      "latitude": 39.798728,
      "geocode_source": "amap_api",
      "geocode_level": "村庄"
    },
    {
      "full_address": "张家口市蔚县宋家庄镇上苏庄村",
      "city": "张家口市",
      "district": "蔚县",
      "county": "",
      "town": "宋家庄镇",
      "village": "上苏庄村",
      "province": "河北省",
      "batch": "第一批列入传统村落名录的村落名单",
      "batch_num": "1",
      "longitude": 114.661135,
      "latitude": 39.77521,
      "geocode_source": "amap_api",
      "geocode_level": "村庄"
    },
    {
      "full_address": "张家口市阳原县浮图讲乡开阳村",
      "city": "张家口市",
      "district": "阳原县",
      "county": "",
      "town": "浮图讲乡",
      "village": "开阳村",
      "province": "河北省",
      "batch": "第一批列入传统村落名录的村落名单",
      "batch_num": "1",
      "longitude": 114.329059,
      "latitude": 40.080252,
      "geocode_source": "amap_api",
      "geocode_level": "村庄"
    },
    {
      "full_address": "太原市晋源区晋源街道店头村",
      "city": "太原市",
      "district": "晋源区",
      "county": "",
      "town": "晋源街道",
      "village": "店头村",
      "province": "山西省",
      "batch": "第一批列入传统村落名录的村落名单",
      "batch_num": "1",
      "longitude": 112.424857,
      "latitude": 37.754776,
      "geocode_source": "amap_api",
      "geocode_level": "村庄"
    },
    {
      "full_address": "大同市天镇县新平堡镇新平堡村",
      "city": "大同市",
      "district": "天镇县",
      "county": "",
      "town": "新平堡镇",
      "village": "新平堡村",
      "province": "山西省",
      "batch": "第一批列入传统村落名录的村落名单",
      "batch_num": "1",
      "longitude": 114.079425,
      "latitude": 40.65921,
      "geocode_source": "amap_api",
      "geocode_level": "村庄"
    },
    {
      "full_address": "大同市灵丘县红石塄乡觉山村",
      "city": "大同市",
      "district": "灵丘县",
      "county": "",
      "town": "红石塄乡",
      "village": "觉山村",
      "province": "山西省",
      "batch": "第一批列入传统村落名录的村落名单",
      "batch_num": "1",
      "longitude": 114.311693,
      "latitude": 39.370874,
      "geocode_source": "amap_api",
      "geocode_level": "村庄"
    },
    {
      "full_address": "阳泉市郊区义井镇小河村",
      "city": "阳泉市",
      "district": "郊区",
      "county": "",
      "town": "义井镇",
      "village": "小河村",
      "province": "山西省",
      "batch": "第一批列入传统村落名录的村落名单",
      "batch_num": "1",
      "longitude": 113.63712,
      "latitude": 37.843951,
      "geocode_source": "amap_api",
      "geocode_level": "村庄"
    },
    {
      "full_address": "阳泉市郊区义井镇大阳泉村",
      "city": "阳泉市",
      "district": "郊区",
      "county": "",
      "town": "义井镇",
      "village": "大阳泉村",
      "province": "山西省",
      "batch": "第一批列入传统村落名录的村落名单",
      "batch_num": "1",
      "longitude": 113.57188,
      "latitude": 37.844463,
      "geocode_source": "amap_api",
      "geocode_level": "村庄"
    },
    {
      "full_address": "长治市长治县八义镇八义村",
      "city": "长治市",
      "district": "长治县",
      "county": "",
      "town": "八义镇",
      "village": "八义村",
      "province": "山西省",
      "batch": "第一批列入传统村落名录的村落名单",
      "batch_num": "1",
      "longitude": 113.026698,
      "latitude": 35.965236,
      "geocode_source": "amap_api",
      "geocode_level": "村庄"
    },
    {
      "full_address": "长治市长治县贾掌镇西岭村",
      "city": "长治市",
      "district": "长治县",
      "county": "",
      "town": "贾掌镇",
      "village": "西岭村",
      "province": "山西省",
      "batch": "第一批列入传统村落名录的村落名单",
      "batch_num": "1",
      "longitude": 113.168728,
      "latitude": 36.132705,
      "geocode_source": "amap_api",
      "geocode_level": "村庄"
    },
    {
      "full_address": "长治市平顺县石城镇东庄村",
      "city": "长治市",
      "district": "平顺县",
      "county": "",
      "town": "石城镇",
      "village": "东庄村",
      "province": "山西省",
      "batch": "第一批列入传统村落名录的村落名单",
      "batch_num": "1",
      "longitude": 113.686949,
      "latitude": 36.342847,
      "geocode_source": "amap_api",
      "geocode_level": "村庄"
    },
    {
      "full_address": "长治市平顺县石城镇岳家寨村",
      "city": "长治市",
      "district": "平顺县",
      "county": "",
      "town": "石城镇",
      "village": "岳家寨村",
      "province": "山西省",
      "batch": "第一批列入传统村落名录的村落名单",
      "batch_num": "1",
      "longitude": 113.640659,
      "latitude": 36.299809,
      "geocode_source": "amap_api",
      "geocode_level": "村庄"
    },
    {
      "full_address": "晋城市高平市河西镇苏庄村",
      "city": "晋城市",
      "district": "高平市",
      "county": "",
      "town": "河西镇",
      "village": "苏庄村",
      "province": "山西省",
      "batch": "第一批列入传统村落名录的村落名单",
      "batch_num": "1",
      "longitude": 112.945142,
      "latitude": 35.727602,
      "geocode_source": "amap_api",
      "geocode_level": "村庄"
    },
    {
      "full_address": "晋城市高平市原村乡良户村",
      "city": "晋城市",
      "district": "高平市",
      "county": "",
      "town": "原村乡",
      "village": "良户村",
      "province": "山西省",
      "batch": "第一批列入传统村落名录的村落名单",
      "batch_num": "1",
      "longitude": 112.77827,
      "latitude": 35.752649,
      "geocode_source": "amap_api",
      "geocode_level": "村庄"
    },
    {
      "full_address": "晋城市高平市马村镇大周村",
      "city": "晋城市",
      "district": "高平市",
      "county": "",
      "town": "马村镇",
      "village": "大周村",
      "province": "山西省",
      "batch": "第一批列入传统村落名录的村落名单",
      "batch_num": "1",
      "longitude": 112.789865,
      "latitude": 35.693758,
      "geocode_source": "amap_api",
      "geocode_level": "村庄"
    },
    {
      "full_address": "晋城市高平市米山镇米西村",
      "city": "晋城市",
      "district": "高平市",
      "county": "",
      "town": "米山镇",
      "village": "米西村",
      "province": "山西省",
      "batch": "第一批列入传统村落名录的村落名单",
      "batch_num": "1",
      "longitude": 112.970602,
      "latitude": 35.764761,
      "geocode_source": "amap_api",
      "geocode_level": "村庄"
    },
    {
      "full_address": "晋城市陵川县西河底镇积善村",
      "city": "晋城市",
      "district": "陵川县",
      "county": "",
      "town": "西河底镇",
      "village": "积善村",
      "province": "山西省",
      "batch": "第一批列入传统村落名录的村落名单",
      "batch_num": "1",
      "longitude": 113.064532,
      "latitude": 35.625231,
      "geocode_source": "amap_api",
      "geocode_level": "村庄"
    },
    {
      "full_address": "晋城市泽州县晋庙铺镇拦车村",
      "city": "晋城市",
      "district": "泽州县",
      "county": "",
      "town": "晋庙铺镇",
      "village": "拦车村",
      "province": "山西省",
      "batch": "第一批列入传统村落名录的村落名单",
      "batch_num": "1",
      "longitude": 112.849712,
      "latitude": 35.309654,
      "geocode_source": "amap_api",
      "geocode_level": "村庄"
    },
    {
      "full_address": "晋城市泽州县北义城镇西黄石村",
      "city": "晋城市",
      "district": "泽州县",
      "county": "",
      "town": "北义城镇",
      "village": "西黄石村",
      "province": "山西省",
      "batch": "第一批列入传统村落名录的村落名单",
      "batch_num": "1",
      "longitude": 113.000779,
      "latitude": 35.681226,
      "geocode_source": "amap_api",
      "geocode_level": "村庄"
    },
    {
      "full_address": "晋城市沁水县嘉峰镇窦庄村",
      "city": "晋城市",
      "district": "沁水县",
      "county": "",
      "town": "嘉峰镇",
      "village": "窦庄村",
      "province": "山西省",
      "batch": "第一批列入传统村落名录的村落名单",
      "batch_num": "1",
      "longitude": 112.523857,
      "latitude": 35.643964,
      "geocode_source": "amap_api",
      "geocode_level": "村庄"
    },
    {
      "full_address": "晋城市沁水县土沃乡西文兴村",
      "city": "晋城市",
      "district": "沁水县",
      "county": "",
      "town": "土沃乡",
      "village": "西文兴村",
      "province": "山西省",
      "batch": "第一批列入传统村落名录的村落名单",
      "batch_num": "1",
      "longitude": 112.150059,
      "latitude": 35.558987,
      "geocode_source": "amap_api",
      "geocode_level": "村庄"
    },
    {
      "full_address": "晋城市沁水县郑村镇湘峪村",
      "city": "晋城市",
      "district": "沁水县",
      "county": "",
      "town": "郑村镇",
      "village": "湘峪村",
      "province": "山西省",
      "batch": "第一批列入传统村落名录的村落名单",
      "batch_num": "1",
      "longitude": 112.594937,
      "latitude": 35.567506,
      "geocode_source": "amap_api",
      "geocode_level": "村庄"
    },
    {
      "full_address": "晋城市阳城县北留镇郭峪村",
      "city": "晋城市",
      "district": "阳城县",
      "county": "",
      "town": "北留镇",
      "village": "郭峪村",
      "province": "山西省",
      "batch": "第一批列入传统村落名录的村落名单",
      "batch_num": "1",
      "longitude": 112.575357,
      "latitude": 35.504638,
      "geocode_source": "amap_api",
      "geocode_level": "村庄"
    },
    {
      "full_address": "晋城市阳城县北留镇皇城村",
      "city": "晋城市",
      "district": "阳城县",
      "county": "",
      "town": "北留镇",
      "village": "皇城村",
      "province": "山西省",
      "batch": "第一批列入传统村落名录的村落名单",
      "batch_num": "1",
      "longitude": 112.582141,
      "latitude": 35.513065,
      "geocode_source": "amap_api",
      "geocode_level": "村庄"
    },
    {
      "full_address": "晋城市阳城县润城镇上庄村",
      "city": "晋城市",
      "district": "阳城县",
      "county": "",
      "town": "润城镇",
      "village": "上庄村",
      "province": "山西省",
      "batch": "第一批列入传统村落名录的村落名单",
      "batch_num": "1",
      "longitude": 112.559679,
      "latitude": 35.517975,
      "geocode_source": "amap_api",
      "geocode_level": "村庄"
    },
    {
      "full_address": "晋中市榆次区东赵乡后沟村",
      "city": "晋中市",
      "district": "榆次区",
      "county": "",
      "town": "东赵乡",
      "village": "后沟村",
      "province": "山西省",
      "batch": "第一批列入传统村落名录的村落名单",
      "batch_num": "1",
      "longitude": 112.803385,
      "latitude": 37.836111,
      "geocode_source": "amap_api",
      "geocode_level": "村庄"
    },
    {
      "full_address": "晋中市介休市龙凤镇张壁村",
      "city": "晋中市",
      "district": "介休市",
      "county": "",
      "town": "龙凤镇",
      "village": "张壁村",
      "province": "山西省",
      "batch": "第一批列入传统村落名录的村落名单",
      "batch_num": "1",
      "longitude": 111.97694,
      "latitude": 36.964305,
      "geocode_source": "amap_api",
      "geocode_level": "村庄"
    },
    {
      "full_address": "晋中市平遥县岳壁乡梁村",
      "city": "晋中市",
      "district": "平遥县",
      "county": "",
      "town": "岳壁乡",
      "village": "梁村",
      "province": "山西省",
      "batch": "第一批列入传统村落名录的村落名单",
      "batch_num": "1",
      "longitude": 112.23379,
      "latitude": 37.159262,
      "geocode_source": "amap_api",
      "geocode_level": "村庄"
    },
    {
      "full_address": "晋中市太谷县北洸乡北洸村",
      "city": "晋中市",
      "district": "太谷县",
      "county": "",
      "town": "北洸乡",
      "village": "北洸村",
      "province": "山西省",
      "batch": "第一批列入传统村落名录的村落名单",
      "batch_num": "1",
      "longitude": 112.514472,
      "latitude": 37.393914,
      "geocode_source": "amap_api",
      "geocode_level": "村庄"
    },
    {
      "full_address": "运城市万荣县高村乡阎景村",
      "city": "运城市",
      "district": "万荣县",
      "county": "",
      "town": "高村乡",
      "village": "阎景村",
      "province": "山西省",
      "batch": "第一批列入传统村落名录的村落名单",
      "batch_num": "1",
      "longitude": 110.722418,
      "latitude": 35.293304,
      "geocode_source": "amap_api",
      "geocode_level": "村庄"
    },
    {
      "full_address": "运城市新绛县泽掌镇光村",
      "city": "运城市",
      "district": "新绛县",
      "county": "",
      "town": "泽掌镇",
      "village": "光村",
      "province": "山西省",
      "batch": "第一批列入传统村落名录的村落名单",
      "batch_num": "1",
      "longitude": 111.176958,
      "latitude": 35.740443,
      "geocode_source": "amap_api",
      "geocode_level": "村庄"
    },
    {
      "full_address": "运城市永济市蒲州镇西厢村",
      "city": "运城市",
      "district": "永济市",
      "county": "",
      "town": "蒲州镇",
      "village": "西厢村",
      "province": "山西省",
      "batch": "第一批列入传统村落名录的村落名单",
      "batch_num": "1",
      "longitude": 110.331189,
      "latitude": 34.843762,
      "geocode_source": "amap_api",
      "geocode_level": "村庄"
    },
    {
      "full_address": "忻州市宁武县涔山乡王化沟村",
      "city": "忻州",
      "district": "市宁武县",
      "county": "",
      "town": "涔山乡",
      "village": "王化沟村",
      "province": "山西省",
      "batch": "第一批列入传统村落名录的村落名单",
      "batch_num": "1",
      "longitude": 112.077067,
      "latitude": 38.885317,
      "geocode_source": "amap_api",
      "geocode_level": "村庄"
    },
    {
      "full_address": "忻州市繁峙县神堂堡乡茨沟营村",
      "city": "忻州",
      "district": "市繁峙县",
      "county": "",
      "town": "神堂堡乡",
      "village": "茨沟营村",
      "province": "山西省",
      "batch": "第一批列入传统村落名录的村落名单",
      "batch_num": "1",
      "longitude": 113.931474,
      "latitude": 39.103648,
      "geocode_source": "amap_api",
      "geocode_level": "村庄"
    },
    {
      "full_address": "忻州市繁峙县杏园乡公主村",
      "city": "忻州",
      "district": "市繁峙县",
      "county": "",
      "town": "杏园乡",
      "village": "公主村",
      "province": "山西省",
      "batch": "第一批列入传统村落名录的村落名单",
      "batch_num": "1",
      "longitude": 113.275969,
      "latitude": 39.171347,
      "geocode_source": "amap_api",
      "geocode_level": "乡镇"
    },
    {
      "full_address": "忻州市繁峙县横涧乡平型关村",
      "city": "忻州",
      "district": "市繁峙县",
      "county": "",
      "town": "横涧乡",
      "village": "平型关村",
      "province": "山西省",
      "batch": "第一批列入传统村落名录的村落名单",
      "batch_num": "1",
      "longitude": 113.911349,
      "latitude": 39.309325,
      "geocode_source": "amap_api",
      "geocode_level": "村庄"
    },
    {
      "full_address": "忻州市河曲县旧县乡旧县村",
      "city": "忻州",
      "district": "市河曲县",
      "county": "",
      "town": "旧县乡",
      "village": "旧县村",
      "province": "山西省",
      "batch": "第一批列入传统村落名录的村落名单",
      "batch_num": "1",
      "longitude": 111.222038,
      "latitude": 39.164651,
      "geocode_source": "amap_api",
      "geocode_level": "村庄"
    },
    {
      "full_address": "忻州市岢岚县大涧乡寺沟会村",
      "city": "忻州",
      "district": "市岢岚县",
      "county": "",
      "town": "大涧乡",
      "village": "寺沟会村",
      "province": "山西省",
      "batch": "第一批列入传统村落名录的村落名单",
      "batch_num": "1",
      "longitude": 111.508873,
      "latitude": 38.587336,
      "geocode_source": "amap_api",
      "geocode_level": "村庄"
    },
    {
      "full_address": "忻州市岢岚县宋家沟乡北方沟村",
      "city": "忻州",
      "district": "市岢岚县",
      "county": "",
      "town": "宋家沟乡",
      "village": "北方沟村",
      "province": "山西省",
      "batch": "第一批列入传统村落名录的村落名单",
      "batch_num": "1",
      "longitude": 111.737233,
      "latitude": 38.616914,
      "geocode_source": "amap_api",
      "geocode_level": "村庄"
    },
    {
      "full_address": "忻州市偏关县万家寨镇万家寨村",
      "city": "忻州",
      "district": "市偏关县",
      "county": "",
      "town": "万家寨镇",
      "village": "万家寨村",
      "province": "山西省",
      "batch": "第一批列入传统村落名录的村落名单",
      "batch_num": "1",
      "longitude": 111.444103,
      "latitude": 39.576705,
      "geocode_source": "amap_api",
      "geocode_level": "村庄"
    },
    {
      "full_address": "临汾市襄汾县新城镇丁村",
      "city": "临汾市",
      "district": "襄汾县",
      "county": "",
      "town": "新城镇",
      "village": "丁村",
      "province": "山西省",
      "batch": "第一批列入传统村落名录的村落名单",
      "batch_num": "1",
      "longitude": 111.42022,
      "latitude": 35.840913,
      "geocode_source": "amap_api",
      "geocode_level": "村庄"
    },
    {
      "full_address": "临汾市襄汾县汾城镇西中黄村",
      "city": "临汾市",
      "district": "襄汾县",
      "county": "",
      "town": "汾城镇",
      "village": "西中黄村",
      "province": "山西省",
      "batch": "第一批列入传统村落名录的村落名单",
      "batch_num": "1",
      "longitude": 111.254711,
      "latitude": 35.85561,
      "geocode_source": "amap_api",
      "geocode_level": "村庄"
    },
    {
      "full_address": "临汾市襄汾县陶寺乡陶寺村",
      "city": "临汾市",
      "district": "襄汾县",
      "county": "",
      "town": "陶寺乡",
      "village": "陶寺村",
      "province": "山西省",
      "batch": "第一批列入传统村落名录的村落名单",
      "batch_num": "1",
      "longitude": 111.503464,
      "latitude": 35.8979,
      "geocode_source": "amap_api",
      "geocode_level": "村庄"
    },
    {
      "full_address": "临汾市汾西县僧念镇师家沟村",
      "city": "临汾市",
      "district": "汾西县",
      "county": "",
      "town": "僧念镇",
      "village": "师家沟村",
      "province": "山西省",
      "batch": "第一批列入传统村落名录的村落名单",
      "batch_num": "1",
      "longitude": 111.613016,
      "latitude": 36.628395,
      "geocode_source": "amap_api",
      "geocode_level": "村庄"
    },
    {
      "full_address": "吕梁市交口县双池镇西庄村",
      "city": "吕梁市",
      "district": "交口县",
      "county": "",
      "town": "双池镇",
      "village": "西庄村",
      "province": "山西省",
      "batch": "第一批列入传统村落名录的村落名单",
      "batch_num": "1",
      "longitude": 111.485629,
      "latitude": 36.917656,
      "geocode_source": "amap_api",
      "geocode_level": "村庄"
    },
    {
      "full_address": "吕梁市临县碛口镇李家山村",
      "city": "吕梁市",
      "district": "临县",
      "county": "",
      "town": "碛口镇",
      "village": "李家山村",
      "province": "山西省",
      "batch": "第一批列入传统村落名录的村落名单",
      "batch_num": "1",
      "longitude": 110.777148,
      "latitude": 37.632913,
      "geocode_source": "amap_api",
      "geocode_level": "村庄"
    },
    {
      "full_address": "吕梁市临县碛口镇西湾村",
      "city": "吕梁市",
      "district": "临县",
      "county": "",
      "town": "碛口镇",
      "village": "西湾村",
      "province": "山西省",
      "batch": "第一批列入传统村落名录的村落名单",
      "batch_num": "1",
      "longitude": 110.809489,
      "latitude": 37.647112,
      "geocode_source": "amap_api",
      "geocode_level": "村庄"
    },
    {
      "full_address": "吕梁市柳林县柳林镇贺昌村",
      "city": "吕梁市",
      "district": "柳林县",
      "county": "",
      "town": "柳林镇",
      "village": "贺昌村",
      "province": "山西省",
      "batch": "第一批列入传统村落名录的村落名单",
      "batch_num": "1",
      "longitude": 110.899417,
      "latitude": 37.434014,
      "geocode_source": "amap_api",
      "geocode_level": "村庄"
    },
    {
      "full_address": "吕梁市柳林县三交镇三交村",
      "city": "吕梁市",
      "district": "柳林县",
      "county": "",
      "town": "三交镇",
      "village": "三交村",
      "province": "山西省",
      "batch": "第一批列入传统村落名录的村落名单",
      "batch_num": "1",
      "longitude": 110.692907,
      "latitude": 37.295114,
      "geocode_source": "amap_api",
      "geocode_level": "乡镇"
    },
    {
      "full_address": "晋中市灵石县两渡镇冷泉村",
      "city": "晋中市",
      "district": "灵石县",
      "county": "",
      "town": "两渡镇",
      "village": "冷泉村",
      "province": "山西省",
      "batch": "第一批列入传统村落名录的村落名单",
      "batch_num": "1",
      "longitude": 111.817643,
      "latitude": 36.96815,
      "geocode_source": "amap_api",
      "geocode_level": "村庄"
    },
    {
      "full_address": "晋中市灵石县夏门镇夏门村",
      "city": "晋中市",
      "district": "灵石县",
      "county": "",
      "town": "夏门镇",
      "village": "夏门村",
      "province": "山西省",
      "batch": "第一批列入传统村落名录的村落名单",
      "batch_num": "1",
      "longitude": 111.706681,
      "latitude": 36.814528,
      "geocode_source": "amap_api",
      "geocode_level": "村庄"
    },
    {
      "full_address": "包头市土默特右旗美岱召镇美岱召村",
      "city": "包头市",
      "district": "土默特右旗",
      "county": "",
      "town": "美岱召镇",
      "village": "美岱召村",
      "province": "内蒙古自治区",
      "batch": "第一批列入传统村落名录的村落名单",
      "batch_num": "1",
      "longitude": 110.71063,
      "latitude": 40.60154,
      "geocode_source": "amap_api",
      "geocode_level": "村庄"
    },
    {
      "full_address": "包头市石拐区五当召镇五当召村",
      "city": "包头市",
      "district": "石拐区",
      "county": "",
      "town": "五当召镇",
      "village": "五当召村",
      "province": "内蒙古自治区",
      "batch": "第一批列入传统村落名录的村落名单",
      "batch_num": "1",
      "longitude": 110.296671,
      "latitude": 40.789928,
      "geocode_source": "amap_api",
      "geocode_level": "兴趣点"
    },
    {
      "full_address": "乌兰察布市丰镇市隆盛庄镇隆盛庄村",
      "city": "乌兰察布市",
      "district": "丰镇市",
      "county": "",
      "town": "隆盛庄镇",
      "village": "隆盛庄村",
      "province": "内蒙古自治区",
      "batch": "第一批列入传统村落名录的村落名单",
      "batch_num": "1",
      "longitude": 113.441317,
      "latitude": 40.701561,
      "geocode_source": "amap_api",
      "geocode_level": "乡镇"
    },
    {
      "full_address": "齐齐哈尔市富裕县友谊达斡尔族满族柯尔克孜族乡宁年村富宁屯",
      "city": "齐齐哈尔市",
      "district": "富裕县",
      "county": "",
      "town": "友谊达斡尔族满族柯尔克孜族乡",
      "village": "宁年村富宁屯",
      "province": "黑龙江省",
      "batch": "第一批列入传统村落名录的村落名单",
      "batch_num": "1",
      "longitude": 124.340143,
      "latitude": 47.881931,
      "geocode_source": "amap_api",
      "geocode_level": "村庄"
    },
    {
      "full_address": "齐齐哈尔市富裕县友谊达斡尔族满族柯尔克孜族乡三家子村",
      "city": "齐齐哈尔市",
      "district": "富裕县",
      "county": "",
      "town": "友谊达斡尔族满族柯尔克孜族乡",
      "village": "三家子村",
      "province": "黑龙江省",
      "batch": "第一批列入传统村落名录的村落名单",
      "batch_num": "1",
      "longitude": 124.289192,
      "latitude": 47.682061,
      "geocode_source": "amap_api",
      "geocode_level": "村庄"
    },
    {
      "full_address": "闵行区马桥镇彭渡村",
      "city": "",
      "district": "闵行区",
      "county": "",
      "town": "马桥镇",
      "village": "彭渡村",
      "province": "上海市",
      "batch": "第一批列入传统村落名录的村落名单",
      "batch_num": "1",
      "longitude": 121.349904,
      "latitude": 30.990791,
      "geocode_level": "村庄",
      "geocode_source": "amap_api"
    },
    {
      "full_address": "闵行区浦江镇革新村",
      "city": "",
      "district": "闵行区",
      "county": "",
      "town": "浦江镇",
      "village": "革新村",
      "province": "上海市",
      "batch": "第一批列入传统村落名录的村落名单",
      "batch_num": "1",
      "longitude": 121.547536,
      "latitude": 31.073221,
      "geocode_level": "村庄",
      "geocode_source": "amap_api"
    },
    {
      "full_address": "宝山区罗店镇东南弄村",
      "city": "",
      "district": "宝山区",
      "county": "",
      "town": "罗店镇",
      "village": "东南弄村",
      "province": "上海市",
      "batch": "第一批列入传统村落名录的村落名单",
      "batch_num": "1",
      "longitude": 121.350372,
      "latitude": 31.412339,
      "geocode_level": "村庄",
      "geocode_source": "amap_api"
    },
    {
      "full_address": "浦东新区康桥镇沔青村",
      "city": "",
      "district": "浦东新区",
      "county": "",
      "town": "康桥镇",
      "village": "沔青村",
      "province": "上海市",
      "batch": "第一批列入传统村落名录的村落名单",
      "batch_num": "1",
      "longitude": 121.627992,
      "latitude": 31.145221,
      "geocode_level": "村庄",
      "geocode_source": "amap_api"
    },
    {
      "full_address": "松江区泗泾镇下塘村",
      "city": "",
      "district": "松江区",
      "county": "",
      "town": "泗泾镇",
      "village": "下塘村",
      "province": "上海市",
      "batch": "第一批列入传统村落名录的村落名单",
      "batch_num": "1",
      "longitude": 121.277166,
      "latitude": 31.111736,
      "geocode_level": "乡镇",
      "geocode_source": "amap_api"
    },
    {
      "full_address": "无锡市惠山区玉祁镇礼社村",
      "city": "无锡市",
      "district": "惠山区",
      "county": "",
      "town": "玉祁镇",
      "village": "礼社村",
      "province": "江苏省",
      "batch": "第一批列入传统村落名录的村落名单",
      "batch_num": "1",
      "longitude": 120.170898,
      "latitude": 31.706323,
      "geocode_level": "村庄",
      "geocode_source": "amap_api"
    },
    {
      "full_address": "苏州市吴中区东山镇陆巷古村",
      "city": "苏州",
      "district": "市吴中区",
      "county": "",
      "town": "东山镇",
      "village": "陆巷古村",
      "province": "江苏省",
      "batch": "第一批列入传统村落名录的村落名单",
      "batch_num": "1",
      "longitude": 120.359598,
      "latitude": 31.075155,
      "geocode_level": "村庄",
      "geocode_source": "amap_api"
    },
    {
      "full_address": "苏州市吴中区金庭镇明月湾村",
      "city": "苏州",
      "district": "市吴中区",
      "county": "",
      "town": "金庭镇",
      "village": "明月湾村",
      "province": "江苏省",
      "batch": "第一批列入传统村落名录的村落名单",
      "batch_num": "1",
      "longitude": 120.289242,
      "latitude": 31.093247,
      "geocode_level": "村庄",
      "geocode_source": "amap_api"
    },
    {
      "full_address": "杭州市富阳市龙门镇龙门村",
      "city": "杭州",
      "district": "市富阳市",
      "county": "",
      "town": "龙门镇",
      "village": "龙门村",
      "province": "浙江省",
      "batch": "第一批列入传统村落名录的村落名单",
      "batch_num": "1",
      "longitude": 119.944178,
      "latitude": 29.905877,
      "geocode_level": "乡镇",
      "geocode_source": "amap_api"
    },
    {
      "full_address": "杭州市建德市大慈岩镇新叶村",
      "city": "杭州",
      "district": "市建德市",
      "county": "",
      "town": "大慈岩镇",
      "village": "新叶村",
      "province": "浙江省",
      "batch": "第一批列入传统村落名录的村落名单",
      "batch_num": "1",
      "longitude": 119.335419,
      "latitude": 29.326922,
      "geocode_level": "村庄",
      "geocode_source": "amap_api"
    },
    {
      "full_address": "杭州市桐庐县江南镇深奥村",
      "city": "杭州",
      "district": "市桐庐县",
      "county": "",
      "town": "江南镇",
      "village": "深奥村",
      "province": "浙江省",
      "batch": "第一批列入传统村落名录的村落名单",
      "batch_num": "1",
      "longitude": 119.839952,
      "latitude": 29.854056,
      "geocode_level": "村庄",
      "geocode_source": "amap_api"
    },
    {
      "full_address": "宁波市奉化市溪口镇岩头村",
      "city": "宁波市",
      "district": "奉化市",
      "county": "",
      "town": "溪口镇",
      "village": "岩头村",
      "province": "浙江省",
      "batch": "第一批列入传统村落名录的村落名单",
      "batch_num": "1",
      "longitude": 121.232238,
      "latitude": 29.596561,
      "geocode_level": "村庄",
      "geocode_source": "amap_api"
    },
    {
      "full_address": "宁波市象山县石浦镇东门渔村",
      "city": "宁波市",
      "district": "象山县",
      "county": "",
      "town": "石浦镇",
      "village": "东门渔村",
      "province": "浙江省",
      "batch": "第一批列入传统村落名录的村落名单",
      "batch_num": "1",
      "longitude": 121.958264,
      "latitude": 29.196193,
      "geocode_level": "村庄",
      "geocode_source": "amap_api"
    },
    {
      "full_address": "宁波市余姚市大岚镇柿林村",
      "city": "宁波市",
      "district": "余姚市",
      "county": "",
      "town": "大岚镇",
      "village": "柿林村",
      "province": "浙江省",
      "batch": "第一批列入传统村落名录的村落名单",
      "batch_num": "1",
      "longitude": 121.158124,
      "latitude": 29.794696,
      "geocode_level": "村庄",
      "geocode_source": "amap_api"
    },
    {
      "full_address": "宁波市余姚市梨洲街道金冠村",
      "city": "宁波市",
      "district": "余姚市",
      "county": "",
      "town": "梨洲街道",
      "village": "金冠村",
      "province": "浙江省",
      "batch": "第一批列入传统村落名录的村落名单",
      "batch_num": "1",
      "longitude": 121.142515,
      "latitude": 29.947134,
      "geocode_level": "村庄",
      "geocode_source": "amap_api"
    },
    {
      "full_address": "宁波市余姚市鹿亭乡中村",
      "city": "宁波市",
      "district": "余姚市",
      "county": "",
      "town": "鹿亭乡",
      "village": "中村",
      "province": "浙江省",
      "batch": "第一批列入传统村落名录的村落名单",
      "batch_num": "1",
      "longitude": 121.223135,
      "latitude": 29.86178,
      "geocode_level": "村庄",
      "geocode_source": "amap_api"
    },
    {
      "full_address": "宁波市宁海县茶院乡许民村",
      "city": "宁波市",
      "district": "宁海县",
      "county": "",
      "town": "茶院乡",
      "village": "许民村",
      "province": "浙江省",
      "batch": "第一批列入传统村落名录的村落名单",
      "batch_num": "1",
      "longitude": 121.537107,
      "latitude": 29.317956,
      "geocode_level": "村庄",
      "geocode_source": "amap_api"
    },
    {
      "full_address": "温州市苍南县矾山镇福德湾村",
      "city": "温州",
      "district": "市苍南县",
      "county": "",
      "town": "矾山镇",
      "village": "福德湾村",
      "province": "浙江省",
      "batch": "第一批列入传统村落名录的村落名单",
      "batch_num": "1",
      "longitude": 120.405251,
      "latitude": 27.334678,
      "geocode_level": "村庄",
      "geocode_source": "amap_api"
    },
    {
      "full_address": "温州市苍南县桥墩镇碗窑村",
      "city": "温州",
      "district": "市苍南县",
      "county": "",
      "town": "桥墩镇",
      "village": "碗窑村",
      "province": "浙江省",
      "batch": "第一批列入传统村落名录的村落名单",
      "batch_num": "1",
      "longitude": 120.266155,
      "latitude": 27.489469,
      "geocode_level": "村庄",
      "geocode_source": "amap_api"
    },
    {
      "full_address": "温州市乐清市仙溪镇南阁村",
      "city": "温州",
      "district": "市乐清市",
      "county": "",
      "town": "仙溪镇",
      "village": "南阁村",
      "province": "浙江省",
      "batch": "第一批列入传统村落名录的村落名单",
      "batch_num": "1",
      "longitude": 121.082211,
      "latitude": 28.403211,
      "geocode_level": "村庄",
      "geocode_source": "amap_api"
    },
    {
      "full_address": "温州市永嘉县岩头镇芙蓉村",
      "city": "温州",
      "district": "市永嘉县",
      "county": "",
      "town": "岩头镇",
      "village": "芙蓉村",
      "province": "浙江省",
      "batch": "第一批列入传统村落名录的村落名单",
      "batch_num": "1",
      "longitude": 120.734695,
      "latitude": 28.329733,
      "geocode_level": "村庄",
      "geocode_source": "amap_api"
    },
    {
      "full_address": "温州市永嘉县岩坦镇屿北村",
      "city": "温州",
      "district": "市永嘉县",
      "county": "",
      "town": "岩坦镇",
      "village": "屿北村",
      "province": "浙江省",
      "batch": "第一批列入传统村落名录的村落名单",
      "batch_num": "1",
      "longitude": 120.726792,
      "latitude": 28.46097,
      "geocode_level": "村庄",
      "geocode_source": "amap_api"
    },
    {
      "full_address": "湖州市南浔区和孚镇荻港村",
      "city": "湖州",
      "district": "市南浔区",
      "county": "",
      "town": "和孚镇",
      "village": "荻港村",
      "province": "浙江省",
      "batch": "第一批列入传统村落名录的村落名单",
      "batch_num": "1",
      "longitude": 120.159411,
      "latitude": 30.756781,
      "geocode_level": "村庄",
      "geocode_source": "amap_api"
    },
    {
      "full_address": "绍兴市嵊州市金庭镇华堂村",
      "city": "绍兴市",
      "district": "嵊州市",
      "county": "",
      "town": "金庭镇",
      "village": "华堂村",
      "province": "浙江省",
      "batch": "第一批列入传统村落名录的村落名单",
      "batch_num": "1",
      "longitude": 121.05189,
      "latitude": 29.555276,
      "geocode_level": "村庄",
      "geocode_source": "amap_api"
    },
    {
      "full_address": "绍兴市诸暨市东白湖镇斯宅村",
      "city": "绍兴市",
      "district": "诸暨市",
      "county": "",
      "town": "东白湖镇",
      "village": "斯宅村",
      "province": "浙江省",
      "batch": "第一批列入传统村落名录的村落名单",
      "batch_num": "1",
      "longitude": 120.44115,
      "latitude": 29.568493,
      "geocode_level": "村庄",
      "geocode_source": "amap_api"
    },
    {
      "full_address": "绍兴市绍兴县稽东镇冢斜村",
      "city": "绍兴市",
      "district": "绍兴县",
      "county": "",
      "town": "稽东镇",
      "village": "冢斜村",
      "province": "浙江省",
      "batch": "第一批列入传统村落名录的村落名单",
      "batch_num": "1",
      "longitude": 120.613307,
      "latitude": 29.790282,
      "geocode_level": "公交地铁站点",
      "geocode_source": "amap_api"
    },
    {
      "full_address": "金华市金东区傅村镇山头下村",
      "city": "金华市",
      "district": "金东区",
      "county": "",
      "town": "傅村镇",
      "village": "山头下村",
      "province": "浙江省",
      "batch": "第一批列入传统村落名录的村落名单",
      "batch_num": "1",
      "longitude": 119.907707,
      "latitude": 29.248236,
      "geocode_level": "村庄",
      "geocode_source": "amap_api"
    },
    {
      "full_address": "金华市磐安县尖山镇管头村",
      "city": "金华市",
      "district": "磐安县",
      "county": "",
      "town": "尖山镇",
      "village": "管头村",
      "province": "浙江省",
      "batch": "第一批列入传统村落名录的村落名单",
      "batch_num": "1",
      "longitude": 120.736269,
      "latitude": 29.236147,
      "geocode_level": "村庄",
      "geocode_source": "amap_api"
    },
    {
      "full_address": "金华市磐安县双溪乡梓誉村",
      "city": "金华市",
      "district": "磐安县",
      "county": "",
      "town": "双溪乡",
      "village": "梓誉村",
      "province": "浙江省",
      "batch": "第一批列入传统村落名录的村落名单",
      "batch_num": "1",
      "longitude": 120.49278,
      "latitude": 29.148471,
      "geocode_level": "村庄",
      "geocode_source": "amap_api"
    },
    {
      "full_address": "金华市浦江县白马镇嵩溪村",
      "city": "金华市",
      "district": "浦江县",
      "county": "",
      "town": "白马镇",
      "village": "嵩溪村",
      "province": "浙江省",
      "batch": "第一批列入传统村落名录的村落名单",
      "batch_num": "1",
      "longitude": 120.010578,
      "latitude": 29.531819,
      "geocode_level": "村庄",
      "geocode_source": "amap_api"
    },
    {
      "full_address": "金华市浦江县虞宅乡新光村",
      "city": "金华市",
      "district": "浦江县",
      "county": "",
      "town": "虞宅乡",
      "village": "新光村",
      "province": "浙江省",
      "batch": "第一批列入传统村落名录的村落名单",
      "batch_num": "1",
      "longitude": 119.821094,
      "latitude": 29.566167,
      "geocode_level": "村庄",
      "geocode_source": "amap_api"
    },
    {
      "full_address": "金华市浦江县郑宅镇郑宅镇区",
      "city": "金华市",
      "district": "浦江县",
      "county": "",
      "town": "郑宅镇",
      "village": "郑宅镇区",
      "province": "浙江省",
      "batch": "第一批列入传统村落名录的村落名单",
      "batch_num": "1",
      "longitude": 120.01148,
      "latitude": 29.484927,
      "geocode_level": "乡镇",
      "geocode_source": "amap_api"
    },
    {
      "full_address": "金华市婺城区汤溪镇寺平村",
      "city": "金华市",
      "district": "婺城区",
      "county": "",
      "town": "汤溪镇",
      "village": "寺平村",
      "province": "浙江省",
      "batch": "第一批列入传统村落名录的村落名单",
      "batch_num": "1",
      "longitude": 119.346762,
      "latitude": 29.019475,
      "geocode_level": "村庄",
      "geocode_source": "amap_api"
    },
    {
      "full_address": "金华市武义县大溪口乡山下鲍村",
      "city": "金华市",
      "district": "武义县",
      "county": "",
      "town": "大溪口乡",
      "village": "山下鲍村",
      "province": "浙江省",
      "batch": "第一批列入传统村落名录的村落名单",
      "batch_num": "1",
      "longitude": 119.681601,
      "latitude": 28.605961,
      "geocode_level": "村庄",
      "geocode_source": "amap_api"
    },
    {
      "full_address": "金华市武义县熟溪街道郭洞村",
      "city": "金华市",
      "district": "武义县",
      "county": "",
      "town": "熟溪街道",
      "village": "郭洞村",
      "province": "浙江省",
      "batch": "第一批列入传统村落名录的村落名单",
      "batch_num": "1",
      "longitude": 119.834153,
      "latitude": 28.814837,
      "geocode_level": "村庄",
      "geocode_source": "amap_api"
    },
    {
      "full_address": "金华市武义县俞源乡俞源村",
      "city": "金华市",
      "district": "武义县",
      "county": "",
      "town": "俞源乡",
      "village": "俞源村",
      "province": "浙江省",
      "batch": "第一批列入传统村落名录的村落名单",
      "batch_num": "1",
      "longitude": 119.666124,
      "latitude": 28.767496,
      "geocode_level": "村庄",
      "geocode_source": "amap_api"
    },
    {
      "full_address": "金华市永康市前仓镇后吴村",
      "city": "金华市",
      "district": "永康市",
      "county": "",
      "town": "前仓镇",
      "village": "后吴村",
      "province": "浙江省",
      "batch": "第一批列入传统村落名录的村落名单",
      "batch_num": "1",
      "longitude": 120.072856,
      "latitude": 28.796901,
      "geocode_level": "村庄",
      "geocode_source": "amap_api"
    },
    {
      "full_address": "衢州市龙游县石佛乡三门源村",
      "city": "衢州",
      "district": "市龙游县",
      "county": "",
      "town": "石佛乡",
      "village": "三门源村",
      "province": "浙江省",
      "batch": "第一批列入传统村落名录的村落名单",
      "batch_num": "1",
      "longitude": 119.108478,
      "latitude": 29.207775,
      "geocode_level": "村庄",
      "geocode_source": "amap_api"
    },
    {
      "full_address": "衢州市江山市大陈乡大陈村",
      "city": "衢州",
      "district": "市江山市",
      "county": "",
      "town": "大陈乡",
      "village": "大陈村",
      "province": "浙江省",
      "batch": "第一批列入传统村落名录的村落名单",
      "batch_num": "1",
      "longitude": 118.595865,
      "latitude": 28.820898,
      "geocode_level": "村庄",
      "geocode_source": "amap_api"
    },
    {
      "full_address": "舟山市岱山县东沙镇东沙村",
      "city": "舟山市",
      "district": "岱山县",
      "county": "",
      "town": "东沙镇",
      "village": "东沙村",
      "province": "浙江省",
      "batch": "第一批列入传统村落名录的村落名单",
      "batch_num": "1",
      "longitude": 122.161268,
      "latitude": 30.30086,
      "geocode_level": "乡镇",
      "geocode_source": "amap_api"
    },
    {
      "full_address": "台州市仙居县田市镇李宅村",
      "city": "台州",
      "district": "市仙居县",
      "county": "",
      "town": "田市镇",
      "village": "李宅村",
      "province": "浙江省",
      "batch": "第一批列入传统村落名录的村落名单",
      "batch_num": "1",
      "longitude": 120.675238,
      "latitude": 28.723343,
      "geocode_level": "村庄",
      "geocode_source": "amap_api"
    },
    {
      "full_address": "台州市仙居县白塔镇高迁村",
      "city": "台州",
      "district": "市仙居县",
      "county": "",
      "town": "白塔镇",
      "village": "高迁村",
      "province": "浙江省",
      "batch": "第一批列入传统村落名录的村落名单",
      "batch_num": "1",
      "longitude": 120.614573,
      "latitude": 28.749089,
      "geocode_level": "村庄",
      "geocode_source": "amap_api"
    },
    {
      "full_address": "丽水市缙云县新建镇河阳村",
      "city": "丽水市",
      "district": "缙云县",
      "county": "",
      "town": "新建镇",
      "village": "河阳村",
      "province": "浙江省",
      "batch": "第一批列入传统村落名录的村落名单",
      "batch_num": "1",
      "longitude": 120.010325,
      "latitude": 28.725219,
      "geocode_level": "村庄",
      "geocode_source": "amap_api"
    },
    {
      "full_address": "丽水市景宁县大际乡西一村",
      "city": "丽水市",
      "district": "景宁县",
      "county": "",
      "town": "大际乡",
      "village": "西一村",
      "province": "浙江省",
      "batch": "第一批列入传统村落名录的村落名单",
      "batch_num": "1",
      "longitude": 119.594029,
      "latitude": 27.806311,
      "geocode_level": "乡镇",
      "geocode_source": "amap_api"
    },
    {
      "full_address": "丽水市龙泉市城北乡上田村",
      "city": "丽水市",
      "district": "龙泉市",
      "county": "",
      "town": "城北乡",
      "village": "上田村",
      "province": "浙江省",
      "batch": "第一批列入传统村落名录的村落名单",
      "batch_num": "1",
      "longitude": 119.293616,
      "latitude": 27.942495,
      "geocode_level": "村庄",
      "geocode_source": "amap_api"
    },
    {
      "full_address": "丽水市龙泉市兰巨乡官浦垟村",
      "city": "丽水市",
      "district": "龙泉市",
      "county": "",
      "town": "兰巨乡",
      "village": "官浦垟村",
      "province": "浙江省",
      "batch": "第一批列入传统村落名录的村落名单",
      "batch_num": "1",
      "longitude": 119.174441,
      "latitude": 27.938508,
      "geocode_level": "村庄",
      "geocode_source": "amap_api"
    },
    {
      "full_address": "丽水市龙泉市西街街道宫头村",
      "city": "丽水市",
      "district": "龙泉市",
      "county": "",
      "town": "西街街道",
      "village": "宫头村",
      "province": "浙江省",
      "batch": "第一批列入传统村落名录的村落名单",
      "batch_num": "1",
      "longitude": 119.115025,
      "latitude": 28.0736,
      "geocode_level": "村庄",
      "geocode_source": "amap_api"
    },
    {
      "full_address": "丽水市龙泉市小梅镇大窑村",
      "city": "丽水市",
      "district": "龙泉市",
      "county": "",
      "town": "小梅镇",
      "village": "大窑村",
      "province": "浙江省",
      "batch": "第一批列入传统村落名录的村落名单",
      "batch_num": "1",
      "longitude": 119.024935,
      "latitude": 27.833035,
      "geocode_level": "村庄",
      "geocode_source": "amap_api"
    },
    {
      "full_address": "丽水市龙泉市小梅镇金村村",
      "city": "丽水市",
      "district": "龙泉市",
      "county": "",
      "town": "小梅镇",
      "village": "金村村",
      "province": "浙江省",
      "batch": "第一批列入传统村落名录的村落名单",
      "batch_num": "1",
      "longitude": 118.975393,
      "latitude": 27.820124,
      "geocode_level": "乡镇",
      "geocode_source": "amap_api"
    },
    {
      "full_address": "丽水市遂昌县焦滩乡独山村",
      "city": "丽水市",
      "district": "遂昌县",
      "county": "",
      "town": "焦滩乡",
      "village": "独山村",
      "province": "浙江省",
      "batch": "第一批列入传统村落名录的村落名单",
      "batch_num": "1",
      "longitude": 118.984256,
      "latitude": 28.422413,
      "geocode_level": "村庄",
      "geocode_source": "amap_api"
    },
    {
      "full_address": "丽水市庆元县濛州街道大济村",
      "city": "丽水市",
      "district": "庆元县",
      "county": "",
      "town": "濛州街道",
      "village": "大济村",
      "province": "浙江省",
      "batch": "第一批列入传统村落名录的村落名单",
      "batch_num": "1",
      "longitude": 119.079545,
      "latitude": 27.603398,
      "geocode_level": "村庄",
      "geocode_source": "amap_api"
    },
    {
      "full_address": "安庆市太湖县汤泉乡金鹰村蔡畈古民居",
      "city": "安庆市",
      "district": "太湖县",
      "county": "",
      "town": "汤泉乡",
      "village": "金鹰村蔡畈古民居",
      "province": "安徽省",
      "batch": "第一批列入传统村落名录的村落名单",
      "batch_num": "1",
      "longitude": 116.166466,
      "latitude": 30.5747,
      "geocode_level": "村庄",
      "geocode_source": "amap_api"
    },
    {
      "full_address": "安庆市太湖县汤泉乡龙潭寨古民居",
      "city": "安庆市",
      "district": "太湖县",
      "county": "",
      "town": "汤泉乡",
      "village": "龙潭寨古民居",
      "province": "安徽省",
      "batch": "第一批列入传统村落名录的村落名单",
      "batch_num": "1",
      "longitude": 116.227953,
      "latitude": 30.635753,
      "geocode_level": "村庄",
      "geocode_source": "amap_api"
    },
    {
      "full_address": "黄山市黄山区永丰乡永丰村",
      "city": "黄山市",
      "district": "黄山区",
      "county": "",
      "town": "永丰乡",
      "village": "永丰村",
      "province": "安徽省",
      "batch": "第一批列入传统村落名录的村落名单",
      "batch_num": "1",
      "longitude": 117.970693,
      "latitude": 30.424707,
      "geocode_level": "村庄",
      "geocode_source": "amap_api"
    },
    {
      "full_address": "黄山市徽州区呈坎镇呈坎村",
      "city": "黄山市",
      "district": "徽州区",
      "county": "",
      "town": "呈坎镇",
      "village": "呈坎村",
      "province": "安徽省",
      "batch": "第一批列入传统村落名录的村落名单",
      "batch_num": "1",
      "longitude": 118.281163,
      "latitude": 29.919257,
      "geocode_level": "村庄",
      "geocode_source": "amap_api"
    },
    {
      "full_address": "黄山市徽州区呈坎镇灵山村",
      "city": "黄山市",
      "district": "徽州区",
      "county": "",
      "town": "呈坎镇",
      "village": "灵山村",
      "province": "安徽省",
      "batch": "第一批列入传统村落名录的村落名单",
      "batch_num": "1",
      "longitude": 118.320504,
      "latitude": 29.918005,
      "geocode_level": "村庄",
      "geocode_source": "amap_api"
    },
    {
      "full_address": "黄山市徽州区潜口镇潜口村",
      "city": "黄山市",
      "district": "徽州区",
      "county": "",
      "town": "潜口镇",
      "village": "潜口村",
      "province": "安徽省",
      "batch": "第一批列入传统村落名录的村落名单",
      "batch_num": "1",
      "longitude": 118.302527,
      "latitude": 29.863469,
      "geocode_level": "村庄",
      "geocode_source": "amap_api"
    },
    {
      "full_address": "黄山市徽州区潜口镇唐模村",
      "city": "黄山市",
      "district": "徽州区",
      "county": "",
      "town": "潜口镇",
      "village": "唐模村",
      "province": "安徽省",
      "batch": "第一批列入传统村落名录的村落名单",
      "batch_num": "1",
      "longitude": 118.334601,
      "latitude": 29.868505,
      "geocode_level": "村庄",
      "geocode_source": "amap_api"
    },
    {
      "full_address": "黄山市祁门县闪里镇坑口村",
      "city": "黄山市",
      "district": "祁门县",
      "county": "",
      "town": "闪里镇",
      "village": "坑口村",
      "province": "安徽省",
      "batch": "第一批列入传统村落名录的村落名单",
      "batch_num": "1",
      "longitude": 117.361535,
      "latitude": 29.851152,
      "geocode_level": "村庄",
      "geocode_source": "amap_api"
    },
    {
      "full_address": "黄山市休宁县万安镇万安老街",
      "city": "黄山市",
      "district": "休宁县",
      "county": "",
      "town": "万安镇",
      "village": "万安老街",
      "province": "安徽省",
      "batch": "第一批列入传统村落名录的村落名单",
      "batch_num": "1",
      "longitude": 118.211707,
      "latitude": 29.789755,
      "geocode_level": "村庄",
      "geocode_source": "amap_api"
    },
    {
      "full_address": "黄山市休宁县商山镇黄村",
      "city": "黄山市",
      "district": "休宁县",
      "county": "",
      "town": "商山镇",
      "village": "黄村",
      "province": "安徽省",
      "batch": "第一批列入传统村落名录的村落名单",
      "batch_num": "1",
      "longitude": 118.172982,
      "latitude": 29.680845,
      "geocode_level": "村庄",
      "geocode_source": "amap_api"
    },
    {
      "full_address": "黄山市黟县宏村镇宏村",
      "city": "黄山市",
      "district": "黟县",
      "county": "",
      "town": "宏村镇",
      "village": "宏村",
      "province": "安徽省",
      "batch": "第一批列入传统村落名录的村落名单",
      "batch_num": "1",
      "longitude": 117.981887,
      "latitude": 30.008034,
      "geocode_level": "村庄",
      "geocode_source": "amap_api"
    },
    {
      "full_address": "黄山市黟县宏村镇卢村",
      "city": "黄山市",
      "district": "黟县",
      "county": "",
      "town": "宏村镇",
      "village": "卢村",
      "province": "安徽省",
      "batch": "第一批列入传统村落名录的村落名单",
      "batch_num": "1",
      "longitude": 117.97516,
      "latitude": 30.014537,
      "geocode_level": "村庄",
      "geocode_source": "amap_api"
    },
    {
      "full_address": "黄山市黟县宏村镇屏山村",
      "city": "黄山市",
      "district": "黟县",
      "county": "",
      "town": "宏村镇",
      "village": "屏山村",
      "province": "安徽省",
      "batch": "第一批列入传统村落名录的村落名单",
      "batch_num": "1",
      "longitude": 117.979538,
      "latitude": 29.942662,
      "geocode_level": "村庄",
      "geocode_source": "amap_api"
    },
    {
      "full_address": "黄山市黟县碧阳镇关麓村",
      "city": "黄山市",
      "district": "黟县",
      "county": "",
      "town": "碧阳镇",
      "village": "关麓村",
      "province": "安徽省",
      "batch": "第一批列入传统村落名录的村落名单",
      "batch_num": "1",
      "longitude": 117.877423,
      "latitude": 29.896604,
      "geocode_level": "村庄",
      "geocode_source": "amap_api"
    },
    {
      "full_address": "黄山市黟县碧阳镇南屏村",
      "city": "黄山市",
      "district": "黟县",
      "county": "",
      "town": "碧阳镇",
      "village": "南屏村",
      "province": "安徽省",
      "batch": "第一批列入传统村落名录的村落名单",
      "batch_num": "1",
      "longitude": 117.906745,
      "latitude": 29.899833,
      "geocode_level": "村庄",
      "geocode_source": "amap_api"
    },
    {
      "full_address": "黄山市黟县西递镇西递村",
      "city": "黄山市",
      "district": "黟县",
      "county": "",
      "town": "西递镇",
      "village": "西递村",
      "province": "安徽省",
      "batch": "第一批列入传统村落名录的村落名单",
      "batch_num": "1",
      "longitude": 117.99334,
      "latitude": 29.901812,
      "geocode_level": "村庄",
      "geocode_source": "amap_api"
    },
    {
      "full_address": "黄山市歙县徽城镇渔梁村",
      "city": "黄山市",
      "district": "歙县",
      "county": "",
      "town": "徽城镇",
      "village": "渔梁村",
      "province": "安徽省",
      "batch": "第一批列入传统村落名录的村落名单",
      "batch_num": "1",
      "longitude": 118.449645,
      "latitude": 29.857828,
      "geocode_level": "村庄",
      "geocode_source": "amap_api"
    },
    {
      "full_address": "黄山市歙县郑村镇棠樾村",
      "city": "黄山市",
      "district": "歙县",
      "county": "",
      "town": "郑村镇",
      "village": "棠樾村",
      "province": "安徽省",
      "batch": "第一批列入传统村落名录的村落名单",
      "batch_num": "1",
      "longitude": 118.370037,
      "latitude": 29.86669,
      "geocode_level": "村庄",
      "geocode_source": "amap_api"
    },
    {
      "full_address": "池州市东至县花园乡南溪古寨",
      "city": "池州",
      "district": "市东至县",
      "county": "",
      "town": "花园乡",
      "village": "南溪古寨",
      "province": "安徽省",
      "batch": "第一批列入传统村落名录的村落名单",
      "batch_num": "1",
      "longitude": 117.094372,
      "latitude": 29.974114,
      "geocode_level": "兴趣点",
      "geocode_source": "amap_api"
    },
    {
      "full_address": "池州市贵池区墩上街道渚湖姜村",
      "city": "池州",
      "district": "市贵池区",
      "county": "",
      "town": "墩上街道",
      "village": "渚湖姜村",
      "province": "安徽省",
      "batch": "第一批列入传统村落名录的村落名单",
      "batch_num": "1",
      "longitude": 117.651324,
      "latitude": 30.567236,
      "geocode_level": "住宅区",
      "geocode_source": "amap_api"
    },
    {
      "full_address": "池州市贵池区棠溪镇石门高村",
      "city": "池州",
      "district": "市贵池区",
      "county": "",
      "town": "棠溪镇",
      "village": "石门高村",
      "province": "安徽省",
      "batch": "第一批列入传统村落名录的村落名单",
      "batch_num": "1",
      "longitude": 117.617462,
      "latitude": 30.346637,
      "geocode_level": "乡镇",
      "geocode_source": "amap_api"
    },
    {
      "full_address": "宣城市泾县桃花潭镇查济村",
      "city": "宣城市",
      "district": "泾县",
      "county": "",
      "town": "桃花潭镇",
      "village": "查济村",
      "province": "安徽省",
      "batch": "第一批列入传统村落名录的村落名单",
      "batch_num": "1",
      "longitude": 118.041835,
      "latitude": 30.51737,
      "geocode_level": "村庄",
      "geocode_source": "amap_api"
    },
    {
      "full_address": "宣城市泾县榔桥镇黄田村",
      "city": "宣城市",
      "district": "泾县",
      "county": "",
      "town": "榔桥镇",
      "village": "黄田村",
      "province": "安徽省",
      "batch": "第一批列入传统村落名录的村落名单",
      "batch_num": "1",
      "longitude": 118.501248,
      "latitude": 30.45903,
      "geocode_level": "村庄",
      "geocode_source": "amap_api"
    },
    {
      "full_address": "宣城市旌德县白地镇江村",
      "city": "宣城市",
      "district": "旌德县",
      "county": "",
      "town": "白地镇",
      "village": "江村",
      "province": "安徽省",
      "batch": "第一批列入传统村落名录的村落名单",
      "batch_num": "1",
      "longitude": 118.38961,
      "latitude": 30.211493,
      "geocode_level": "村庄",
      "geocode_source": "amap_api"
    },
    {
      "full_address": "宣城市绩溪县瀛洲镇龙川村",
      "city": "宣城市",
      "district": "绩溪县",
      "county": "",
      "town": "瀛洲镇",
      "village": "龙川村",
      "province": "安徽省",
      "batch": "第一批列入传统村落名录的村落名单",
      "batch_num": "1",
      "longitude": 118.66945,
      "latitude": 30.078121,
      "geocode_level": "村庄",
      "geocode_source": "amap_api"
    },
    {
      "full_address": "福州市马尾区亭江镇闽安村",
      "city": "福州",
      "district": "市马尾区",
      "county": "",
      "town": "亭江镇",
      "village": "闽安村",
      "province": "福建省",
      "batch": "第一批列入传统村落名录的村落名单",
      "batch_num": "1",
      "longitude": 119.504173,
      "latitude": 26.047078,
      "geocode_source": "amap_api",
      "geocode_level": "村庄"
    },
    {
      "full_address": "福州市长乐市航城街道琴江村",
      "city": "福州",
      "district": "市长乐市",
      "county": "",
      "town": "航城街道",
      "village": "琴江村",
      "province": "福建省",
      "batch": "第一批列入传统村落名录的村落名单",
      "batch_num": "1",
      "longitude": 119.498606,
      "latitude": 25.999189,
      "geocode_source": "amap_api",
      "geocode_level": "村庄"
    },
    {
      "full_address": "三明市清流县赖坊乡赖安村",
      "city": "三明市",
      "district": "清流县",
      "county": "",
      "town": "赖坊乡",
      "village": "赖安村",
      "province": "福建省",
      "batch": "第一批列入传统村落名录的村落名单",
      "batch_num": "1",
      "longitude": 116.886472,
      "latitude": 25.932081,
      "geocode_source": "amap_api",
      "geocode_level": "村庄"
    },
    {
      "full_address": "三明市大田县济阳乡济阳村",
      "city": "三明市",
      "district": "大田县",
      "county": "",
      "town": "济阳乡",
      "village": "济阳村",
      "province": "福建省",
      "batch": "第一批列入传统村落名录的村落名单",
      "batch_num": "1",
      "longitude": 117.968404,
      "latitude": 25.540774,
      "geocode_source": "amap_api",
      "geocode_level": "村庄"
    },
    {
      "full_address": "三明市建宁县溪源乡上坪村",
      "city": "三明市",
      "district": "建宁县",
      "county": "",
      "town": "溪源乡",
      "village": "上坪村",
      "province": "福建省",
      "batch": "第一批列入传统村落名录的村落名单",
      "batch_num": "1",
      "longitude": 116.953691,
      "latitude": 26.987113,
      "geocode_source": "amap_api",
      "geocode_level": "村庄"
    },
    {
      "full_address": "三明市将乐县万全乡良地村",
      "city": "三明市",
      "district": "将乐县",
      "county": "",
      "town": "万全乡",
      "village": "良地村",
      "province": "福建省",
      "batch": "第一批列入传统村落名录的村落名单",
      "batch_num": "1",
      "longitude": 117.227219,
      "latitude": 26.726219,
      "geocode_source": "amap_api",
      "geocode_level": "村庄"
    },
    {
      "full_address": "三明市明溪县胡坊镇肖家山村",
      "city": "三明市",
      "district": "明溪县",
      "county": "",
      "town": "胡坊镇",
      "village": "肖家山村",
      "province": "福建省",
      "batch": "第一批列入传统村落名录的村落名单",
      "batch_num": "1",
      "longitude": 117.222634,
      "latitude": 26.292157,
      "geocode_source": "amap_api",
      "geocode_level": "村庄"
    },
    {
      "full_address": "三明市明溪县夏阳乡御帘村",
      "city": "三明市",
      "district": "明溪县",
      "county": "",
      "town": "夏阳乡",
      "village": "御帘村",
      "province": "福建省",
      "batch": "第一批列入传统村落名录的村落名单",
      "batch_num": "1",
      "longitude": 117.420318,
      "latitude": 26.42974,
      "geocode_source": "amap_api",
      "geocode_level": "村庄"
    },
    {
      "full_address": "三明市尤溪县台溪乡盖竹村",
      "city": "三明市",
      "district": "尤溪县",
      "county": "",
      "town": "台溪乡",
      "village": "盖竹村",
      "province": "福建省",
      "batch": "第一批列入传统村落名录的村落名单",
      "batch_num": "1",
      "longitude": 118.252579,
      "latitude": 26.102514,
      "geocode_source": "amap_api",
      "geocode_level": "乡镇"
    },
    {
      "full_address": "三明市尤溪县台溪乡书京村",
      "city": "三明市",
      "district": "尤溪县",
      "county": "",
      "town": "台溪乡",
      "village": "书京村",
      "province": "福建省",
      "batch": "第一批列入传统村落名录的村落名单",
      "batch_num": "1",
      "longitude": 118.236032,
      "latitude": 26.102872,
      "geocode_source": "amap_api",
      "geocode_level": "村庄"
    },
    {
      "full_address": "三明市尤溪县西滨镇厚丰村",
      "city": "三明市",
      "district": "尤溪县",
      "county": "",
      "town": "西滨镇",
      "village": "厚丰村",
      "province": "福建省",
      "batch": "第一批列入传统村落名录的村落名单",
      "batch_num": "1",
      "longitude": 118.30558,
      "latitude": 26.397984,
      "geocode_source": "amap_api",
      "geocode_level": "村庄"
    },
    {
      "full_address": "三明市尤溪县新阳镇双鲤村",
      "city": "三明市",
      "district": "尤溪县",
      "county": "",
      "town": "新阳镇",
      "village": "双鲤村",
      "province": "福建省",
      "batch": "第一批列入传统村落名录的村落名单",
      "batch_num": "1",
      "longitude": 118.041943,
      "latitude": 26.115806,
      "geocode_source": "amap_api",
      "geocode_level": "村庄"
    },
    {
      "full_address": "三明市尤溪县洋中镇桂峰村",
      "city": "三明市",
      "district": "尤溪县",
      "county": "",
      "town": "洋中镇",
      "village": "桂峰村",
      "province": "福建省",
      "batch": "第一批列入传统村落名录的村落名单",
      "batch_num": "1",
      "longitude": 118.53521,
      "latitude": 26.302273,
      "geocode_source": "amap_api",
      "geocode_level": "村庄"
    },
    {
      "full_address": "三明市泰宁县新桥乡大源村",
      "city": "三明市",
      "district": "泰宁县",
      "county": "",
      "town": "新桥乡",
      "village": "大源村",
      "province": "福建省",
      "batch": "第一批列入传统村落名录的村落名单",
      "batch_num": "1",
      "longitude": 117.068612,
      "latitude": 27.083472,
      "geocode_source": "amap_api",
      "geocode_level": "村庄"
    },
    {
      "full_address": "泉州市晋江市金井镇福全村",
      "city": "泉州",
      "district": "市晋江市",
      "county": "",
      "town": "金井镇",
      "village": "福全村",
      "province": "福建省",
      "batch": "第一批列入传统村落名录的村落名单",
      "batch_num": "1",
      "longitude": 118.625763,
      "latitude": 24.547467,
      "geocode_source": "amap_api",
      "geocode_level": "村庄"
    },
    {
      "full_address": "泉州市永春县岵山镇茂霞村",
      "city": "泉州",
      "district": "市永春县",
      "county": "",
      "town": "岵山镇",
      "village": "茂霞村",
      "province": "福建省",
      "batch": "第一批列入传统村落名录的村落名单",
      "batch_num": "1",
      "longitude": 118.2586,
      "latitude": 25.28103,
      "geocode_source": "amap_api",
      "geocode_level": "村庄"
    },
    {
      "full_address": "漳州市平和县大溪镇庄上村",
      "city": "漳州",
      "district": "市平和县",
      "county": "",
      "town": "大溪镇",
      "village": "庄上村",
      "province": "福建省",
      "batch": "第一批列入传统村落名录的村落名单",
      "batch_num": "1",
      "longitude": 117.109395,
      "latitude": 24.111616,
      "geocode_source": "amap_api",
      "geocode_level": "村庄"
    },
    {
      "full_address": "漳州市平和县霞寨镇钟腾村",
      "city": "漳州",
      "district": "市平和县",
      "county": "",
      "town": "霞寨镇",
      "village": "钟腾村",
      "province": "福建省",
      "batch": "第一批列入传统村落名录的村落名单",
      "batch_num": "1",
      "longitude": 117.141141,
      "latitude": 24.381185,
      "geocode_source": "amap_api",
      "geocode_level": "村庄"
    },
    {
      "full_address": "漳州市南靖县书洋镇田螺坑村",
      "city": "漳州",
      "district": "市南靖县",
      "county": "",
      "town": "书洋镇",
      "village": "田螺坑村",
      "province": "福建省",
      "batch": "第一批列入传统村落名录的村落名单",
      "batch_num": "1",
      "longitude": 117.061653,
      "latitude": 24.584025,
      "geocode_source": "amap_api",
      "geocode_level": "住宅区"
    },
    {
      "full_address": "南平市武夷山市武夷街道下梅村",
      "city": "南平市",
      "district": "武夷山市",
      "county": "",
      "town": "武夷街道",
      "village": "下梅村",
      "province": "福建省",
      "batch": "第一批列入传统村落名录的村落名单",
      "batch_num": "1",
      "longitude": 118.046243,
      "latitude": 27.667786,
      "geocode_source": "amap_api",
      "geocode_level": "村庄"
    },
    {
      "full_address": "南平市武夷山市兴田镇城村",
      "city": "南平市",
      "district": "武夷山市",
      "county": "",
      "town": "兴田镇",
      "village": "城村",
      "province": "福建省",
      "batch": "第一批列入传统村落名录的村落名单",
      "batch_num": "1",
      "longitude": 118.039935,
      "latitude": 27.553824,
      "geocode_source": "amap_api",
      "geocode_level": "村庄"
    },
    {
      "full_address": "南平市顺昌县大干镇上湖村",
      "city": "南平市",
      "district": "顺昌县",
      "county": "",
      "town": "大干镇",
      "village": "上湖村",
      "province": "福建省",
      "batch": "第一批列入传统村落名录的村落名单",
      "batch_num": "1",
      "longitude": 117.742682,
      "latitude": 26.929751,
      "geocode_source": "amap_api",
      "geocode_level": "乡镇"
    },
    {
      "full_address": "龙岩市连城县庙前镇芷溪村",
      "city": "龙岩市",
      "district": "连城县",
      "county": "",
      "town": "庙前镇",
      "village": "芷溪村",
      "province": "福建省",
      "batch": "第一批列入传统村落名录的村落名单",
      "batch_num": "1",
      "longitude": 116.652309,
      "latitude": 25.324941,
      "geocode_source": "amap_api",
      "geocode_level": "村庄"
    },
    {
      "full_address": "龙岩市连城县宣和乡培田村",
      "city": "龙岩市",
      "district": "连城县",
      "county": "",
      "town": "宣和乡",
      "village": "培田村",
      "province": "福建省",
      "batch": "第一批列入传统村落名录的村落名单",
      "batch_num": "1",
      "longitude": 116.639217,
      "latitude": 25.636098,
      "geocode_source": "amap_api",
      "geocode_level": "村庄"
    },
    {
      "full_address": "龙岩市连城县莒溪镇壁洲村",
      "city": "龙岩市",
      "district": "连城县",
      "county": "",
      "town": "莒溪镇",
      "village": "壁洲村",
      "province": "福建省",
      "batch": "第一批列入传统村落名录的村落名单",
      "batch_num": "1",
      "longitude": 116.747754,
      "latitude": 25.491439,
      "geocode_source": "amap_api",
      "geocode_level": "乡镇"
    },
    {
      "full_address": "龙岩市连城县四堡乡务阁村",
      "city": "龙岩市",
      "district": "连城县",
      "county": "",
      "town": "四堡乡",
      "village": "务阁村",
      "province": "福建省",
      "batch": "第一批列入传统村落名录的村落名单",
      "batch_num": "1",
      "longitude": 116.708737,
      "latitude": 25.89193,
      "geocode_source": "amap_api",
      "geocode_level": "村庄"
    },
    {
      "full_address": "龙岩市长汀县馆前镇坪埔村",
      "city": "龙岩市",
      "district": "长汀县",
      "county": "",
      "town": "馆前镇",
      "village": "坪埔村",
      "province": "福建省",
      "batch": "第一批列入传统村落名录的村落名单",
      "batch_num": "1",
      "longitude": 116.549044,
      "latitude": 25.976681,
      "geocode_source": "amap_api",
      "geocode_level": "村庄"
    },
    {
      "full_address": "龙岩市长汀县三洲镇三洲村",
      "city": "龙岩市",
      "district": "长汀县",
      "county": "",
      "town": "三洲镇",
      "village": "三洲村",
      "province": "福建省",
      "batch": "第一批列入传统村落名录的村落名单",
      "batch_num": "1",
      "longitude": 116.38805,
      "latitude": 25.594496,
      "geocode_source": "amap_api",
      "geocode_level": "村庄"
    },
    {
      "full_address": "龙岩市长汀县红山乡苏竹村",
      "city": "龙岩市",
      "district": "长汀县",
      "county": "",
      "town": "红山乡",
      "village": "苏竹村",
      "province": "福建省",
      "batch": "第一批列入传统村落名录的村落名单",
      "batch_num": "1",
      "longitude": 116.174408,
      "latitude": 25.533075,
      "geocode_source": "amap_api",
      "geocode_level": "村庄"
    },
    {
      "full_address": "龙岩市上杭县太拔乡院田村",
      "city": "龙岩市",
      "district": "上杭县",
      "county": "",
      "town": "太拔乡",
      "village": "院田村",
      "province": "福建省",
      "batch": "第一批列入传统村落名录的村落名单",
      "batch_num": "1",
      "longitude": 116.649542,
      "latitude": 24.963832,
      "geocode_source": "amap_api",
      "geocode_level": "村庄"
    },
    {
      "full_address": "龙岩市新罗区适中镇中心村",
      "city": "龙岩市",
      "district": "新罗区",
      "county": "",
      "town": "适中镇",
      "village": "中心村",
      "province": "福建省",
      "batch": "第一批列入传统村落名录的村落名单",
      "batch_num": "1",
      "longitude": 117.10823,
      "latitude": 24.879844,
      "geocode_source": "amap_api",
      "geocode_level": "村庄"
    },
    {
      "full_address": "龙岩市永定县湖坑镇洪坑村",
      "city": "龙岩市",
      "district": "永定县",
      "county": "",
      "town": "湖坑镇",
      "village": "洪坑村",
      "province": "福建省",
      "batch": "第一批列入传统村落名录的村落名单",
      "batch_num": "1",
      "longitude": 116.977298,
      "latitude": 24.655548,
      "geocode_source": "amap_api",
      "geocode_level": "村庄"
    },
    {
      "full_address": "龙岩市漳平市双洋镇东洋村",
      "city": "龙岩市",
      "district": "漳平市",
      "county": "",
      "town": "双洋镇",
      "village": "东洋村",
      "province": "福建省",
      "batch": "第一批列入传统村落名录的村落名单",
      "batch_num": "1",
      "longitude": 117.364812,
      "latitude": 25.603343,
      "geocode_source": "amap_api",
      "geocode_level": "村庄"
    },
    {
      "full_address": "宁德市福安市溪潭镇廉村",
      "city": "宁德市",
      "district": "福安市",
      "county": "",
      "town": "溪潭镇",
      "village": "廉村",
      "province": "福建省",
      "batch": "第一批列入传统村落名录的村落名单",
      "batch_num": "1",
      "longitude": 119.616841,
      "latitude": 27.020835,
      "geocode_source": "amap_api",
      "geocode_level": "村庄"
    },
    {
      "full_address": "宁德市福鼎市磻溪镇仙蒲村",
      "city": "宁德市",
      "district": "福鼎市",
      "county": "",
      "town": "磻溪镇",
      "village": "仙蒲村",
      "province": "福建省",
      "batch": "第一批列入传统村落名录的村落名单",
      "batch_num": "1",
      "longitude": 119.984994,
      "latitude": 27.103057,
      "geocode_source": "amap_api",
      "geocode_level": "村庄"
    },
    {
      "full_address": "宁德市福鼎市店下镇巽城村",
      "city": "宁德市",
      "district": "福鼎市",
      "county": "",
      "town": "店下镇",
      "village": "巽城村",
      "province": "福建省",
      "batch": "第一批列入传统村落名录的村落名单",
      "batch_num": "1",
      "longitude": 120.290283,
      "latitude": 27.218252,
      "geocode_source": "amap_api",
      "geocode_level": "村庄"
    },
    {
      "full_address": "宁德市福鼎市管阳镇西昆村",
      "city": "宁德市",
      "district": "福鼎市",
      "county": "",
      "town": "管阳镇",
      "village": "西昆村",
      "province": "福建省",
      "batch": "第一批列入传统村落名录的村落名单",
      "batch_num": "1",
      "longitude": 120.025933,
      "latitude": 27.250189,
      "geocode_source": "amap_api",
      "geocode_level": "村庄"
    },
    {
      "full_address": "宁德市福鼎市太姥山镇潋城村",
      "city": "宁德市",
      "district": "福鼎市",
      "county": "",
      "town": "太姥山镇",
      "village": "潋城村",
      "province": "福建省",
      "batch": "第一批列入传统村落名录的村落名单",
      "batch_num": "1",
      "longitude": 120.249108,
      "latitude": 27.140311,
      "geocode_source": "amap_api",
      "geocode_level": "村庄"
    },
    {
      "full_address": "宁德市古田县吉巷乡长洋村",
      "city": "宁德市",
      "district": "古田县",
      "county": "",
      "town": "吉巷乡",
      "village": "长洋村",
      "province": "福建省",
      "batch": "第一批列入传统村落名录的村落名单",
      "batch_num": "1",
      "longitude": 118.943774,
      "latitude": 26.742603,
      "geocode_source": "amap_api",
      "geocode_level": "村庄"
    },
    {
      "full_address": "宁德市古田县平湖镇富达村",
      "city": "宁德市",
      "district": "古田县",
      "county": "",
      "town": "平湖镇",
      "village": "富达村",
      "province": "福建省",
      "batch": "第一批列入传统村落名录的村落名单",
      "batch_num": "1",
      "longitude": 118.827523,
      "latitude": 26.699412,
      "geocode_source": "amap_api",
      "geocode_level": "村庄"
    },
    {
      "full_address": "宁德市古田县杉洋镇杉洋村",
      "city": "宁德市",
      "district": "古田县",
      "county": "",
      "town": "杉洋镇",
      "village": "杉洋村",
      "province": "福建省",
      "batch": "第一批列入传统村落名录的村落名单",
      "batch_num": "1",
      "longitude": 119.210308,
      "latitude": 26.664931,
      "geocode_source": "amap_api",
      "geocode_level": "村庄"
    },
    {
      "full_address": "宁德市屏南县长桥镇柏源村",
      "city": "宁德市",
      "district": "屏南县",
      "county": "",
      "town": "长桥镇",
      "village": "柏源村",
      "province": "福建省",
      "batch": "第一批列入传统村落名录的村落名单",
      "batch_num": "1",
      "longitude": 118.769506,
      "latitude": 26.870839,
      "geocode_source": "amap_api",
      "geocode_level": "村庄"
    },
    {
      "full_address": "宁德市屏南县长桥镇长桥村",
      "city": "宁德市",
      "district": "屏南县",
      "county": "",
      "town": "长桥镇",
      "village": "长桥村",
      "province": "福建省",
      "batch": "第一批列入传统村落名录的村落名单",
      "batch_num": "1",
      "longitude": 118.847964,
      "latitude": 26.820309,
      "geocode_source": "amap_api",
      "geocode_level": "村庄"
    },
    {
      "full_address": "宁德市屏南县双溪镇双溪社区",
      "city": "宁德市",
      "district": "屏南县",
      "county": "",
      "town": "双溪镇",
      "village": "双溪社区",
      "province": "福建省",
      "batch": "第一批列入传统村落名录的村落名单",
      "batch_num": "1",
      "longitude": 119.039728,
      "latitude": 27.016254,
      "geocode_source": "amap_api",
      "geocode_level": "村庄"
    },
    {
      "full_address": "宁德市屏南县棠口乡棠口村",
      "city": "宁德市",
      "district": "屏南县",
      "county": "",
      "town": "棠口乡",
      "village": "棠口村",
      "province": "福建省",
      "batch": "第一批列入传统村落名录的村落名单",
      "batch_num": "1",
      "longitude": 119.017648,
      "latitude": 26.954006,
      "geocode_source": "amap_api",
      "geocode_level": "村庄"
    },
    {
      "full_address": "宁德市屏南县棠口乡漈头村",
      "city": "宁德市",
      "district": "屏南县",
      "county": "",
      "town": "棠口乡",
      "village": "漈头村",
      "province": "福建省",
      "batch": "第一批列入传统村落名录的村落名单",
      "batch_num": "1",
      "longitude": 119.035248,
      "latitude": 26.898397,
      "geocode_source": "amap_api",
      "geocode_level": "村庄"
    },
    {
      "full_address": "宁德市屏南县甘棠乡漈下村",
      "city": "宁德市",
      "district": "屏南县",
      "county": "",
      "town": "甘棠乡",
      "village": "漈下村",
      "province": "福建省",
      "batch": "第一批列入传统村落名录的村落名单",
      "batch_num": "1",
      "longitude": 118.941514,
      "latitude": 26.846351,
      "geocode_source": "amap_api",
      "geocode_level": "村庄"
    },
    {
      "full_address": "宁德市霞浦县溪南镇半月里村",
      "city": "宁德市",
      "district": "霞浦县",
      "county": "",
      "town": "溪南镇",
      "village": "半月里村",
      "province": "福建省",
      "batch": "第一批列入传统村落名录的村落名单",
      "batch_num": "1",
      "longitude": 119.918046,
      "latitude": 26.878008,
      "geocode_source": "amap_api",
      "geocode_level": "村庄"
    },
    {
      "full_address": "南昌市进贤县温圳镇杨溪村委李家村",
      "city": "南昌市",
      "district": "进贤县",
      "county": "",
      "town": "温圳镇",
      "village": "杨溪村委李家村",
      "province": "江西省",
      "batch": "第一批列入传统村落名录的村落名单",
      "batch_num": "1",
      "longitude": 116.182213,
      "latitude": 28.384962,
      "geocode_level": "村庄",
      "geocode_source": "amap_api"
    },
    {
      "full_address": "南昌市进贤县文港镇晏家村",
      "city": "南昌市",
      "district": "进贤县",
      "county": "",
      "town": "文港镇",
      "village": "晏家村",
      "province": "江西省",
      "batch": "第一批列入传统村落名录的村落名单",
      "batch_num": "1",
      "longitude": 116.135206,
      "latitude": 28.287018,
      "geocode_level": "乡镇",
      "geocode_source": "amap_api"
    },
    {
      "full_address": "南昌市安义县石鼻镇罗田村",
      "city": "南昌市",
      "district": "安义县",
      "county": "",
      "town": "石鼻镇",
      "village": "罗田村",
      "province": "江西省",
      "batch": "第一批列入传统村落名录的村落名单",
      "batch_num": "1",
      "longitude": 115.603999,
      "latitude": 28.747954,
      "geocode_level": "村庄",
      "geocode_source": "amap_api"
    },
    {
      "full_address": "景德镇市浮梁县江村乡严台村",
      "city": "景德镇市",
      "district": "浮梁县",
      "county": "",
      "town": "江村乡",
      "village": "严台村",
      "province": "江西省",
      "batch": "第一批列入传统村落名录的村落名单",
      "batch_num": "1",
      "longitude": 117.391414,
      "latitude": 29.817189,
      "geocode_level": "村庄",
      "geocode_source": "amap_api"
    },
    {
      "full_address": "景德镇市浮梁县勒功乡沧溪村",
      "city": "景德镇市",
      "district": "浮梁县",
      "county": "",
      "town": "勒功乡",
      "village": "沧溪村",
      "province": "江西省",
      "batch": "第一批列入传统村落名录的村落名单",
      "batch_num": "1",
      "longitude": 117.32611,
      "latitude": 29.78967,
      "geocode_level": "村庄",
      "geocode_source": "amap_api"
    },
    {
      "full_address": "景德镇市浮梁县浮梁镇旧城村",
      "city": "景德镇市",
      "district": "浮梁县",
      "county": "",
      "town": "浮梁镇",
      "village": "旧城村",
      "province": "江西省",
      "batch": "第一批列入传统村落名录的村落名单",
      "batch_num": "1",
      "longitude": 117.252389,
      "latitude": 29.368038,
      "geocode_level": "村庄",
      "geocode_source": "amap_api"
    },
    {
      "full_address": "景德镇市浮梁县瑶里镇高岭村",
      "city": "景德镇市",
      "district": "浮梁县",
      "county": "",
      "town": "瑶里镇",
      "village": "高岭村",
      "province": "江西省",
      "batch": "第一批列入传统村落名录的村落名单",
      "batch_num": "1",
      "longitude": 117.534014,
      "latitude": 29.484503,
      "geocode_level": "村庄",
      "geocode_source": "amap_api"
    },
    {
      "full_address": "景德镇市浮梁县瑶里镇绕南村",
      "city": "景德镇市",
      "district": "浮梁县",
      "county": "",
      "town": "瑶里镇",
      "village": "绕南村",
      "province": "江西省",
      "batch": "第一批列入传统村落名录的村落名单",
      "batch_num": "1",
      "longitude": 117.606469,
      "latitude": 29.559681,
      "geocode_level": "村庄",
      "geocode_source": "amap_api"
    },
    {
      "full_address": "景德镇市浮梁县峙滩乡英溪村",
      "city": "景德镇市",
      "district": "浮梁县",
      "county": "",
      "town": "峙滩乡",
      "village": "英溪村",
      "province": "江西省",
      "batch": "第一批列入传统村落名录的村落名单",
      "batch_num": "1",
      "longitude": 117.371078,
      "latitude": 29.598907,
      "geocode_level": "村庄",
      "geocode_source": "amap_api"
    },
    {
      "full_address": "赣州市赣县白鹭乡白鹭村",
      "city": "赣州",
      "district": "市赣县",
      "county": "",
      "town": "白鹭乡",
      "village": "白鹭村",
      "province": "江西省",
      "batch": "第一批列入传统村落名录的村落名单",
      "batch_num": "1",
      "longitude": 115.15402,
      "latitude": 26.24207,
      "geocode_level": "村庄",
      "geocode_source": "amap_api"
    },
    {
      "full_address": "赣州市安远县镇岗乡老围村",
      "city": "赣州",
      "district": "市安远县",
      "county": "",
      "town": "镇岗乡",
      "village": "老围村",
      "province": "江西省",
      "batch": "第一批列入传统村落名录的村落名单",
      "batch_num": "1",
      "longitude": 115.332273,
      "latitude": 25.003063,
      "geocode_level": "村庄",
      "geocode_source": "amap_api"
    },
    {
      "full_address": "赣州市龙南县杨村镇杨村村燕翼围",
      "city": "赣州",
      "district": "市龙南县",
      "county": "",
      "town": "杨村镇",
      "village": "杨村村燕翼围",
      "province": "江西省",
      "batch": "第一批列入传统村落名录的村落名单",
      "batch_num": "1",
      "longitude": 114.632521,
      "latitude": 24.633704,
      "geocode_level": "村庄",
      "geocode_source": "amap_api"
    },
    {
      "full_address": "赣州市龙南县关西镇关西村",
      "city": "赣州",
      "district": "市龙南县",
      "county": "",
      "town": "关西镇",
      "village": "关西村",
      "province": "江西省",
      "batch": "第一批列入传统村落名录的村落名单",
      "batch_num": "1",
      "longitude": 114.946155,
      "latitude": 24.850344,
      "geocode_level": "村庄",
      "geocode_source": "amap_api"
    },
    {
      "full_address": "吉安市井冈山市鹅岭乡塘南村",
      "city": "吉安市",
      "district": "井冈山市",
      "county": "",
      "town": "鹅岭乡",
      "village": "塘南村",
      "province": "江西省",
      "batch": "第一批列入传统村落名录的村落名单",
      "batch_num": "1",
      "longitude": 114.135403,
      "latitude": 26.715985,
      "geocode_level": "村庄",
      "geocode_source": "amap_api"
    },
    {
      "full_address": "吉安市青原区富田镇陂下村",
      "city": "吉安市",
      "district": "青原区",
      "county": "",
      "town": "富田镇",
      "village": "陂下村",
      "province": "江西省",
      "batch": "第一批列入传统村落名录的村落名单",
      "batch_num": "1",
      "longitude": 115.229237,
      "latitude": 26.805082,
      "geocode_level": "村庄",
      "geocode_source": "amap_api"
    },
    {
      "full_address": "吉安市青原区富田镇横坑村",
      "city": "吉安市",
      "district": "青原区",
      "county": "",
      "town": "富田镇",
      "village": "横坑村",
      "province": "江西省",
      "batch": "第一批列入传统村落名录的村落名单",
      "batch_num": "1",
      "longitude": 115.244107,
      "latitude": 26.829753,
      "geocode_level": "村庄",
      "geocode_source": "amap_api"
    },
    {
      "full_address": "吉安市青原区文陂乡渼陂村",
      "city": "吉安市",
      "district": "青原区",
      "county": "",
      "town": "文陂乡",
      "village": "渼陂村",
      "province": "江西省",
      "batch": "第一批列入传统村落名录的村落名单",
      "batch_num": "1",
      "longitude": 115.116844,
      "latitude": 26.942752,
      "geocode_level": "村庄",
      "geocode_source": "amap_api"
    },
    {
      "full_address": "吉安市吉州区兴桥镇钓源村",
      "city": "吉安市",
      "district": "吉州区",
      "county": "",
      "town": "兴桥镇",
      "village": "钓源村",
      "province": "江西省",
      "batch": "第一批列入传统村落名录的村落名单",
      "batch_num": "1",
      "longitude": 114.842487,
      "latitude": 27.185162,
      "geocode_level": "村庄",
      "geocode_source": "amap_api"
    },
    {
      "full_address": "吉安市安福县金田乡柘溪村",
      "city": "吉安市",
      "district": "安福县",
      "county": "",
      "town": "金田乡",
      "village": "柘溪村",
      "province": "江西省",
      "batch": "第一批列入传统村落名录的村落名单",
      "batch_num": "1",
      "longitude": 114.438606,
      "latitude": 27.186904,
      "geocode_level": "村庄",
      "geocode_source": "amap_api"
    },
    {
      "full_address": "吉安市安福县洋门乡上街村",
      "city": "吉安市",
      "district": "安福县",
      "county": "",
      "town": "洋门乡",
      "village": "上街村",
      "province": "江西省",
      "batch": "第一批列入传统村落名录的村落名单",
      "batch_num": "1",
      "longitude": 114.38891,
      "latitude": 27.17669,
      "geocode_level": "村庄",
      "geocode_source": "amap_api"
    },
    {
      "full_address": "吉安市安福县洲湖镇塘边村",
      "city": "吉安市",
      "district": "安福县",
      "county": "",
      "town": "洲湖镇",
      "village": "塘边村",
      "province": "江西省",
      "batch": "第一批列入传统村落名录的村落名单",
      "batch_num": "1",
      "longitude": 114.494288,
      "latitude": 27.119615,
      "geocode_level": "村庄",
      "geocode_source": "amap_api"
    },
    {
      "full_address": "吉安市吉水县金滩镇燕坊村",
      "city": "吉安市",
      "district": "吉水县",
      "county": "",
      "town": "金滩镇",
      "village": "燕坊村",
      "province": "江西省",
      "batch": "第一批列入传统村落名录的村落名单",
      "batch_num": "1",
      "longitude": 115.082495,
      "latitude": 27.213516,
      "geocode_level": "村庄",
      "geocode_source": "amap_api"
    },
    {
      "full_address": "宜春市高安市新街镇贾家村",
      "city": "宜春市",
      "district": "高安市",
      "county": "",
      "town": "新街镇",
      "village": "贾家村",
      "province": "江西省",
      "batch": "第一批列入传统村落名录的村落名单",
      "batch_num": "1",
      "longitude": 115.17265,
      "latitude": 28.263618,
      "geocode_level": "村庄",
      "geocode_source": "amap_api"
    },
    {
      "full_address": "宜春市宜丰县天宝乡天宝村",
      "city": "宜春市",
      "district": "宜丰县",
      "county": "",
      "town": "天宝乡",
      "village": "天宝村",
      "province": "江西省",
      "batch": "第一批列入传统村落名录的村落名单",
      "batch_num": "1",
      "longitude": 114.766345,
      "latitude": 28.525406,
      "geocode_level": "乡镇",
      "geocode_source": "amap_api"
    },
    {
      "full_address": "抚州市广昌县驿前镇驿前村",
      "city": "抚州",
      "district": "市广昌县",
      "county": "",
      "town": "驿前镇",
      "village": "驿前村",
      "province": "江西省",
      "batch": "第一批列入传统村落名录的村落名单",
      "batch_num": "1",
      "longitude": 116.325144,
      "latitude": 26.555209,
      "geocode_level": "村庄",
      "geocode_source": "amap_api"
    },
    {
      "full_address": "抚州市乐安县湖坪乡湖坪村",
      "city": "抚州",
      "district": "市乐安县",
      "county": "",
      "town": "湖坪乡",
      "village": "湖坪村",
      "province": "江西省",
      "batch": "第一批列入传统村落名录的村落名单",
      "batch_num": "1",
      "longitude": 115.754097,
      "latitude": 27.188935,
      "geocode_level": "乡镇",
      "geocode_source": "amap_api"
    },
    {
      "full_address": "抚州市乐安县牛田镇流坑村",
      "city": "抚州",
      "district": "市乐安县",
      "county": "",
      "town": "牛田镇",
      "village": "流坑村",
      "province": "江西省",
      "batch": "第一批列入传统村落名录的村落名单",
      "batch_num": "1",
      "longitude": 115.769181,
      "latitude": 27.266303,
      "geocode_level": "村庄",
      "geocode_source": "amap_api"
    },
    {
      "full_address": "抚州市金溪县双塘镇竹桥村",
      "city": "抚州",
      "district": "市金溪县",
      "county": "",
      "town": "双塘镇",
      "village": "竹桥村",
      "province": "江西省",
      "batch": "第一批列入传统村落名录的村落名单",
      "batch_num": "1",
      "longitude": 116.76039,
      "latitude": 27.995369,
      "geocode_level": "村庄",
      "geocode_source": "amap_api"
    },
    {
      "full_address": "上饶市婺源县江湾镇江湾村",
      "city": "上饶市",
      "district": "婺源县",
      "county": "",
      "town": "江湾镇",
      "village": "江湾村",
      "province": "江西省",
      "batch": "第一批列入传统村落名录的村落名单",
      "batch_num": "1",
      "longitude": 118.053117,
      "latitude": 29.369179,
      "geocode_level": "村庄",
      "geocode_source": "amap_api"
    },
    {
      "full_address": "上饶市婺源县江湾镇汪口村",
      "city": "上饶市",
      "district": "婺源县",
      "county": "",
      "town": "江湾镇",
      "village": "汪口村",
      "province": "江西省",
      "batch": "第一批列入传统村落名录的村落名单",
      "batch_num": "1",
      "longitude": 117.996867,
      "latitude": 29.35018,
      "geocode_level": "村庄",
      "geocode_source": "amap_api"
    },
    {
      "full_address": "上饶市婺源县思口镇延村",
      "city": "上饶市",
      "district": "婺源县",
      "county": "",
      "town": "思口镇",
      "village": "延村",
      "province": "江西省",
      "batch": "第一批列入传统村落名录的村落名单",
      "batch_num": "1",
      "longitude": 117.802883,
      "latitude": 29.339625,
      "geocode_level": "村庄",
      "geocode_source": "amap_api"
    },
    {
      "full_address": "上饶市婺源县沱川乡理坑村",
      "city": "上饶市",
      "district": "婺源县",
      "county": "",
      "town": "沱川乡",
      "village": "理坑村",
      "province": "江西省",
      "batch": "第一批列入传统村落名录的村落名单",
      "batch_num": "1",
      "longitude": 117.829603,
      "latitude": 29.526559,
      "geocode_level": "村庄",
      "geocode_source": "amap_api"
    },
    {
      "full_address": "上饶市婺源县浙源乡虹关村",
      "city": "上饶市",
      "district": "婺源县",
      "county": "",
      "town": "浙源乡",
      "village": "虹关村",
      "province": "江西省",
      "batch": "第一批列入传统村落名录的村落名单",
      "batch_num": "1",
      "longitude": 117.899096,
      "latitude": 29.517559,
      "geocode_level": "村庄",
      "geocode_source": "amap_api"
    },
    {
      "full_address": "济南市章丘市官庄镇朱家峪村",
      "city": "济南市",
      "district": "章丘市",
      "county": "",
      "town": "官庄镇",
      "village": "朱家峪村",
      "province": "山东省",
      "batch": "第一批列入传统村落名录的村落名单",
      "batch_num": "1",
      "longitude": 117.583856,
      "latitude": 36.649311,
      "geocode_source": "amap_api",
      "geocode_level": "村庄"
    },
    {
      "full_address": "青岛市崂山区王哥庄街道青山渔村",
      "city": "青岛市",
      "district": "崂山区",
      "county": "",
      "town": "王哥庄街道",
      "village": "青山渔村",
      "province": "山东省",
      "batch": "第一批列入传统村落名录的村落名单",
      "batch_num": "1",
      "longitude": 120.642607,
      "latitude": 36.269489,
      "geocode_source": "amap_api",
      "geocode_level": "乡镇"
    },
    {
      "full_address": "青岛市即墨市丰城镇雄崖所村",
      "city": "青岛市",
      "district": "即墨市",
      "county": "",
      "town": "丰城镇",
      "village": "雄崖所村",
      "province": "山东省",
      "batch": "第一批列入传统村落名录的村落名单",
      "batch_num": "1",
      "longitude": 120.868127,
      "latitude": 36.584607,
      "geocode_source": "amap_api",
      "geocode_level": "村庄"
    },
    {
      "full_address": "淄博市周村区王村镇李家疃村",
      "city": "淄博市",
      "district": "周村区",
      "county": "",
      "town": "王村镇",
      "village": "李家疃村",
      "province": "山东省",
      "batch": "第一批列入传统村落名录的村落名单",
      "batch_num": "1",
      "longitude": 117.702517,
      "latitude": 36.660679,
      "geocode_source": "amap_api",
      "geocode_level": "村庄"
    },
    {
      "full_address": "淄博市淄川区太河镇梦泉村",
      "city": "淄博市",
      "district": "淄川区",
      "county": "",
      "town": "太河镇",
      "village": "梦泉村",
      "province": "山东省",
      "batch": "第一批列入传统村落名录的村落名单",
      "batch_num": "1",
      "longitude": 118.149377,
      "latitude": 36.431395,
      "geocode_source": "amap_api",
      "geocode_level": "村庄"
    },
    {
      "full_address": "枣庄市山亭区山城街道兴隆庄村",
      "city": "枣庄市",
      "district": "山亭区",
      "county": "",
      "town": "山城街道",
      "village": "兴隆庄村",
      "province": "山东省",
      "batch": "第一批列入传统村落名录的村落名单",
      "batch_num": "1",
      "longitude": 117.499549,
      "latitude": 35.109303,
      "geocode_source": "amap_api",
      "geocode_level": "村庄"
    },
    {
      "full_address": "潍坊市寒亭区寒亭街道西杨家埠村",
      "city": "潍坊市",
      "district": "寒亭区",
      "county": "",
      "town": "寒亭街道",
      "village": "西杨家埠村",
      "province": "山东省",
      "batch": "第一批列入传统村落名录的村落名单",
      "batch_num": "1",
      "longitude": 119.216974,
      "latitude": 36.761011,
      "geocode_source": "amap_api",
      "geocode_level": "村庄"
    },
    {
      "full_address": "泰安市岱岳区大汶口镇山西街村",
      "city": "泰安市",
      "district": "岱岳区",
      "county": "",
      "town": "大汶口镇",
      "village": "山西街村",
      "province": "山东省",
      "batch": "第一批列入传统村落名录的村落名单",
      "batch_num": "1",
      "longitude": 117.090862,
      "latitude": 35.952632,
      "geocode_source": "amap_api",
      "geocode_level": "村庄"
    },
    {
      "full_address": "威海市荣成市宁津街道东楮岛村",
      "city": "威海市",
      "district": "荣成市",
      "county": "",
      "town": "宁津街道",
      "village": "东楮岛村",
      "province": "山东省",
      "batch": "第一批列入传统村落名录的村落名单",
      "batch_num": "1",
      "longitude": 122.563482,
      "latitude": 37.041097,
      "geocode_source": "amap_api",
      "geocode_level": "村庄"
    },
    {
      "full_address": "洛阳市孟津县小浪底镇乔庄村",
      "city": "洛阳市",
      "district": "孟津县",
      "county": "",
      "town": "小浪底镇",
      "village": "乔庄村",
      "province": "河南省",
      "batch": "第一批列入传统村落名录的村落名单",
      "batch_num": "1",
      "longitude": 112.375828,
      "latitude": 34.853565,
      "geocode_source": "amap_api",
      "geocode_level": "乡镇"
    },
    {
      "full_address": "洛阳市汝阳县蔡店乡杜康村",
      "city": "洛阳市",
      "district": "汝阳县",
      "county": "",
      "town": "蔡店乡",
      "village": "杜康村",
      "province": "河南省",
      "batch": "第一批列入传统村落名录的村落名单",
      "batch_num": "1",
      "longitude": 112.430554,
      "latitude": 34.307778,
      "geocode_source": "amap_api",
      "geocode_level": "村庄"
    },
    {
      "full_address": "平顶山市宝丰县杨庄镇马街村",
      "city": "平顶山市",
      "district": "宝丰县",
      "county": "",
      "town": "杨庄镇",
      "village": "马街村",
      "province": "河南省",
      "batch": "第一批列入传统村落名录的村落名单",
      "batch_num": "1",
      "longitude": 113.057382,
      "latitude": 33.859065,
      "geocode_source": "amap_api",
      "geocode_level": "乡镇"
    },
    {
      "full_address": "平顶山市郏县堂街镇临沣寨(村)",
      "city": "平顶山市",
      "district": "郏县",
      "county": "",
      "town": "堂街镇",
      "village": "临沣寨(村)",
      "province": "河南省",
      "batch": "第一批列入传统村落名录的村落名单",
      "batch_num": "1",
      "longitude": 113.271275,
      "latitude": 33.891463,
      "geocode_source": "amap_api",
      "geocode_level": "村庄"
    },
    {
      "full_address": "平顶山市郏县李口镇张店村",
      "city": "平顶山市",
      "district": "郏县",
      "county": "",
      "town": "李口镇",
      "village": "张店村",
      "province": "河南省",
      "batch": "第一批列入传统村落名录的村落名单",
      "batch_num": "1",
      "longitude": 113.323662,
      "latitude": 33.842683,
      "geocode_source": "amap_api",
      "geocode_level": "乡镇"
    },
    {
      "full_address": "平顶山市郏县渣园乡渣园村",
      "city": "平顶山市",
      "district": "郏县",
      "county": "",
      "town": "渣园乡",
      "village": "渣园村",
      "province": "河南省",
      "batch": "第一批列入传统村落名录的村落名单",
      "batch_num": "1",
      "longitude": 113.165804,
      "latitude": 33.995697,
      "geocode_source": "amap_api",
      "geocode_level": "村庄"
    },
    {
      "full_address": "平顶山市郏县冢头镇西寨村",
      "city": "平顶山市",
      "district": "郏县",
      "county": "",
      "town": "冢头镇",
      "village": "西寨村",
      "province": "河南省",
      "batch": "第一批列入传统村落名录的村落名单",
      "batch_num": "1",
      "longitude": 113.340311,
      "latitude": 33.983871,
      "geocode_source": "amap_api",
      "geocode_level": "村庄"
    },
    {
      "full_address": "新乡市卫辉市狮豹头乡小店河村",
      "city": "新乡市",
      "district": "卫辉市",
      "county": "",
      "town": "狮豹头乡",
      "village": "小店河村",
      "province": "河南省",
      "batch": "第一批列入传统村落名录的村落名单",
      "batch_num": "1",
      "longitude": 114.011274,
      "latitude": 35.608197,
      "geocode_source": "amap_api",
      "geocode_level": "村庄"
    },